{
"type": "FeatureCollection",
"name": "hotspot",
"crs": { "type": "name", "properties": { "name": "urn:ogc:def:crs:OGC:1.3:CRS84" } },
"features": [
{ "type": "Feature", "properties": { "id": 1, "title": "RTHP MANTRIJERON RW 10", "descriptio": null, "kecamatan": "Mantrijeron", "kelurahan": "Mantrijeron", "longitude": 110.3630611, "latitude": -7.8245528, "iconsrc": "https://peta.jogjakota.go.id/assets/icon_marker/placeholder.png", "kategori": "Tikor WiFi Free Hotspot" }, "geometry": { "type": "Point", "coordinates": [ 110.3630611, -7.8245528 ] } },
{ "type": "Feature", "properties": { "id": 2, "title": "RTHP PANDEYAN RW 11", "descriptio": null, "kecamatan": "Umbulharjo", "kelurahan": "Pandeyan", "longitude": 110.3924694, "latitude": -7.8168194, "iconsrc": "https://peta.jogjakota.go.id/assets/icon_marker/placeholder.png", "kategori": "Tikor WiFi Free Hotspot" }, "geometry": { "type": "Point", "coordinates": [ 110.3924694, -7.8168194 ] } },
{ "type": "Feature", "properties": { "id": 3, "title": "RTHP PRENGGAN RW04", "descriptio": null, "kecamatan": "Kotagede", "kelurahan": "Prenggan", "longitude": 110.398222, "latitude": -7.821248, "iconsrc": "https://peta.jogjakota.go.id/assets/icon_marker/placeholder.png", "kategori": "Tikor WiFi Free Hotspot" }, "geometry": { "type": "Point", "coordinates": [ 110.398222, -7.821248 ] } },
{ "type": "Feature", "properties": { "id": 4, "title": "RTHP KLITREN RW 13", "descriptio": null, "kecamatan": "Gondokusuman", "kelurahan": "Klitren", "longitude": 110.3865167, "latitude": -7.7808806, "iconsrc": "https://peta.jogjakota.go.id/assets/icon_marker/placeholder.png", "kategori": "Tikor WiFi Free Hotspot" }, "geometry": { "type": "Point", "coordinates": [ 110.3865167, -7.7808806 ] } },
{ "type": "Feature", "properties": { "id": 5, "title": "RTHP BACIRO RW08 TAMAN BAKUNG", "descriptio": null, "kecamatan": "Gondokusuman", "kelurahan": "Baciro", "longitude": 110.381872, "latitude": -7.792548, "iconsrc": "https://peta.jogjakota.go.id/assets/icon_marker/placeholder.png", "kategori": "Tikor WiFi Free Hotspot" }, "geometry": { "type": "Point", "coordinates": [ 110.381872, -7.792548 ] } },
{ "type": "Feature", "properties": { "id": 6, "title": "RTHP NGUPASAN RW 07", "descriptio": null, "kecamatan": "Gondomanan", "kelurahan": "Ngupasan", "longitude": 110.3703194, "latitude": -7.7998, "iconsrc": "https://peta.jogjakota.go.id/assets/icon_marker/placeholder.png", "kategori": "Tikor WiFi Free Hotspot" }, "geometry": { "type": "Point", "coordinates": [ 110.3703194, -7.7998 ] } },
{ "type": "Feature", "properties": { "id": 7, "title": "RTHP GEDONGKIWO RW17", "descriptio": null, "kecamatan": "Mantrijeron", "kelurahan": "Gedongkiwo", "longitude": 110.353239, "latitude": -7.821849, "iconsrc": "https://peta.jogjakota.go.id/assets/icon_marker/placeholder.png", "kategori": "Tikor WiFi Free Hotspot" }, "geometry": { "type": "Point", "coordinates": [ 110.353239, -7.821849 ] } },
{ "type": "Feature", "properties": { "id": 8, "title": "RTHP SOROSUTAN RW 9", "descriptio": null, "kecamatan": "Umbulharjo", "kelurahan": "Sorosutan", "longitude": 110.3847528, "latitude": -7.8228194, "iconsrc": "https://peta.jogjakota.go.id/assets/icon_marker/placeholder.png", "kategori": "Tikor WiFi Free Hotspot" }, "geometry": { "type": "Point", "coordinates": [ 110.3847528, -7.8228194 ] } },
{ "type": "Feature", "properties": { "id": 9, "title": "RTHP BUMIJO RW09", "descriptio": null, "kecamatan": "Jetis", "kelurahan": "Bumijo", "longitude": 110.356339, "latitude": -7.787769, "iconsrc": "https://peta.jogjakota.go.id/assets/icon_marker/placeholder.png", "kategori": "Tikor WiFi Free Hotspot" }, "geometry": { "type": "Point", "coordinates": [ 110.356339, -7.787769 ] } },
{ "type": "Feature", "properties": { "id": 10, "title": "RTHP PANDEYAN RW 02", "descriptio": null, "kecamatan": "Umbulharjo", "kelurahan": "Pandeyan", "longitude": 110.3818667, "latitude": -7.8130611, "iconsrc": "https://peta.jogjakota.go.id/assets/icon_marker/placeholder.png", "kategori": "Tikor WiFi Free Hotspot" }, "geometry": { "type": "Point", "coordinates": [ 110.3818667, -7.8130611 ] } },
{ "type": "Feature", "properties": { "id": 11, "title": "RTHP KADIPATEN RW 07", "descriptio": null, "kecamatan": "Kraton", "kelurahan": "Kadipaten", "longitude": 110.3611306, "latitude": -7.8052694, "iconsrc": "https://peta.jogjakota.go.id/assets/icon_marker/placeholder.png", "kategori": "Tikor WiFi Free Hotspot" }, "geometry": { "type": "Point", "coordinates": [ 110.3611306, -7.8052694 ] } },
{ "type": "Feature", "properties": { "id": 12, "title": "BALAI RW 02 BACIRO", "descriptio": null, "kecamatan": "Gondokusuman", "kelurahan": "Baciro", "longitude": 110.3783444, "latitude": -7.7962639, "iconsrc": "https://peta.jogjakota.go.id/assets/icon_marker/placeholder.png", "kategori": "Tikor WiFi Free Hotspot" }, "geometry": { "type": "Point", "coordinates": [ 110.3783444, -7.7962639 ] } },
{ "type": "Feature", "properties": { "id": 13, "title": "RTHP BACIRO RW018", "descriptio": null, "kecamatan": "Gondokusuman", "kelurahan": "Baciro", "longitude": 110.391724, "latitude": -7.789033, "iconsrc": "https://peta.jogjakota.go.id/assets/icon_marker/placeholder.png", "kategori": "Tikor WiFi Free Hotspot" }, "geometry": { "type": "Point", "coordinates": [ 110.391724, -7.789033 ] } },
{ "type": "Feature", "properties": { "id": 14, "title": "RTHP RW09 TEGALREJO", "descriptio": null, "kecamatan": "Tegalrejo", "kelurahan": "Tegalrejo", "longitude": 110.351748, "latitude": -7.791225, "iconsrc": "https://peta.jogjakota.go.id/assets/icon_marker/placeholder.png", "kategori": "Tikor WiFi Free Hotspot" }, "geometry": { "type": "Point", "coordinates": [ 110.351748, -7.791225 ] } },
{ "type": "Feature", "properties": { "id": 15, "title": "RTHP TEGALPANGGUNG RW 01", "descriptio": null, "kecamatan": "Danurejan", "kelurahan": "Tegalpanggung", "longitude": 110.3693556, "latitude": -7.7915944, "iconsrc": "https://peta.jogjakota.go.id/assets/icon_marker/placeholder.png", "kategori": "Tikor WiFi Free Hotspot" }, "geometry": { "type": "Point", "coordinates": [ 110.3693556, -7.7915944 ] } },
{ "type": "Feature", "properties": { "id": 16, "title": "BALAI RW 10 GIWANGAN", "descriptio": null, "kecamatan": "Umbulharjo", "kelurahan": "Giwangan", "longitude": 110.391675, "latitude": -7.8331306, "iconsrc": "https://peta.jogjakota.go.id/assets/icon_marker/placeholder.png", "kategori": "Tikor WiFi Free Hotspot" }, "geometry": { "type": "Point", "coordinates": [ 110.391675, -7.8331306 ] } },
{ "type": "Feature", "properties": { "id": 17, "title": "RTHP PAKUNCEN", "descriptio": null, "kecamatan": "Wirobrajan", "kelurahan": "Pakuncen", "longitude": 110.3512417, "latitude": -7.7979694, "iconsrc": "https://peta.jogjakota.go.id/assets/icon_marker/placeholder.png", "kategori": "Tikor WiFi Free Hotspot" }, "geometry": { "type": "Point", "coordinates": [ 110.3512417, -7.7979694 ] } },
{ "type": "Feature", "properties": { "id": 18, "title": "BALAI RW 15 MANTRIJERON", "descriptio": null, "kecamatan": "Mantrijeron", "kelurahan": "Mantrijeron", "longitude": 110.3678944, "latitude": -7.820425, "iconsrc": "https://peta.jogjakota.go.id/assets/icon_marker/placeholder.png", "kategori": "Tikor WiFi Free Hotspot" }, "geometry": { "type": "Point", "coordinates": [ 110.3678944, -7.820425 ] } },
{ "type": "Feature", "properties": { "id": 19, "title": "RTHP DEMANGAN RW 10", "descriptio": null, "kecamatan": "Gondokusuman", "kelurahan": "Demangan", "longitude": 110.3871972, "latitude": -7.7888139, "iconsrc": "https://peta.jogjakota.go.id/assets/icon_marker/placeholder.png", "kategori": "Tikor WiFi Free Hotspot" }, "geometry": { "type": "Point", "coordinates": [ 110.3871972, -7.7888139 ] } },
{ "type": "Feature", "properties": { "id": 20, "title": "RTHP PANDEYAN TAMAN LEGAWONG", "descriptio": null, "kecamatan": "Umbulharjo", "kelurahan": "Pandeyan", "longitude": 110.3937944, "latitude": -7.8242361, "iconsrc": "https://peta.jogjakota.go.id/assets/icon_marker/placeholder.png", "kategori": "Tikor WiFi Free Hotspot" }, "geometry": { "type": "Point", "coordinates": [ 110.3937944, -7.8242361 ] } },
{ "type": "Feature", "properties": { "id": 21, "title": "RTHP RW06 TERBAN", "descriptio": null, "kecamatan": "Gondokusuman", "kelurahan": "Terban", "longitude": 110.372552, "latitude": -7.782082, "iconsrc": "https://peta.jogjakota.go.id/assets/icon_marker/placeholder.png", "kategori": "Tikor WiFi Free Hotspot" }, "geometry": { "type": "Point", "coordinates": [ 110.372552, -7.782082 ] } },
{ "type": "Feature", "properties": { "id": 22, "title": "BALAI RW 12 PANDEYAN", "descriptio": null, "kecamatan": "Umbulharjo", "kelurahan": "Pandeyan", "longitude": 110.3840667, "latitude": -7.8127639, "iconsrc": "https://peta.jogjakota.go.id/assets/icon_marker/placeholder.png", "kategori": "Tikor WiFi Free Hotspot" }, "geometry": { "type": "Point", "coordinates": [ 110.3840667, -7.8127639 ] } },
{ "type": "Feature", "properties": { "id": 23, "title": "BALAI RW 02 PAKUNCEN", "descriptio": null, "kecamatan": "Wirobrajan", "kelurahan": "Pakuncen", "longitude": 110.3521139, "latitude": -7.7938389, "iconsrc": "https://peta.jogjakota.go.id/assets/icon_marker/placeholder.png", "kategori": "Tikor WiFi Free Hotspot" }, "geometry": { "type": "Point", "coordinates": [ 110.3521139, -7.7938389 ] } },
{ "type": "Feature", "properties": { "id": 24, "title": "RTHP BACIRO RW09 TAMAN KANTIL", "descriptio": null, "kecamatan": "Gondokusuman", "kelurahan": "Baciro", "longitude": 110.383359, "latitude": -7.791759, "iconsrc": "https://peta.jogjakota.go.id/assets/icon_marker/placeholder.png", "kategori": "Tikor WiFi Free Hotspot" }, "geometry": { "type": "Point", "coordinates": [ 110.383359, -7.791759 ] } },
{ "type": "Feature", "properties": { "id": 25, "title": "RTHP NOTOPRAJAN RW 06", "descriptio": null, "kecamatan": "Ngampilan", "kelurahan": "Notoprajan", "longitude": 110.358525, "latitude": -7.8022417, "iconsrc": "https://peta.jogjakota.go.id/assets/icon_marker/placeholder.png", "kategori": "Tikor WiFi Free Hotspot" }, "geometry": { "type": "Point", "coordinates": [ 110.358525, -7.8022417 ] } },
{ "type": "Feature", "properties": { "id": 26, "title": "BALAI RW 18 GEDONGKIWO", "descriptio": null, "kecamatan": "Mantrijeron", "kelurahan": "Gedongkiwo", "longitude": 110.3525889, "latitude": -7.8239278, "iconsrc": "https://peta.jogjakota.go.id/assets/icon_marker/placeholder.png", "kategori": "Tikor WiFi Free Hotspot" }, "geometry": { "type": "Point", "coordinates": [ 110.3525889, -7.8239278 ] } },
{ "type": "Feature", "properties": { "id": 27, "title": "RTHP COKRODININGRATAN RW 08", "descriptio": null, "kecamatan": "Jetis", "kelurahan": "Cokrodiningratan", "longitude": 110.3701639, "latitude": -7.7795694, "iconsrc": "https://peta.jogjakota.go.id/assets/icon_marker/placeholder.png", "kategori": "Tikor WiFi Free Hotspot" }, "geometry": { "type": "Point", "coordinates": [ 110.3701639, -7.7795694 ] } },
{ "type": "Feature", "properties": { "id": 28, "title": "RTHP PRINGGOKUSUMAN", "descriptio": null, "kecamatan": "Gedongtengen", "kelurahan": "Pringgokusuman", "longitude": 110.3557972, "latitude": -7.79505, "iconsrc": "https://peta.jogjakota.go.id/assets/icon_marker/placeholder.png", "kategori": "Tikor WiFi Free Hotspot" }, "geometry": { "type": "Point", "coordinates": [ 110.3557972, -7.79505 ] } },
{ "type": "Feature", "properties": { "id": 29, "title": "RTHP GUNUNGKETUR RW 04", "descriptio": null, "kecamatan": "Pakualaman", "kelurahan": "Gunungketur", "longitude": 110.3787056, "latitude": -7.8004139, "iconsrc": "https://peta.jogjakota.go.id/assets/icon_marker/placeholder.png", "kategori": "Tikor WiFi Free Hotspot" }, "geometry": { "type": "Point", "coordinates": [ 110.3787056, -7.8004139 ] } },
{ "type": "Feature", "properties": { "id": 30, "title": "RTHP KRICAK RW 01", "descriptio": null, "kecamatan": "Tegalrejo", "kelurahan": "Kricak", "longitude": 110.3543083, "latitude": -7.7730194, "iconsrc": "https://peta.jogjakota.go.id/assets/icon_marker/placeholder.png", "kategori": "Tikor WiFi Free Hotspot" }, "geometry": { "type": "Point", "coordinates": [ 110.3543083, -7.7730194 ] } },
{ "type": "Feature", "properties": { "id": 31, "title": "RTHP SEMAKI RW 07", "descriptio": null, "kecamatan": "Umbulharjo", "kelurahan": "Semaki", "longitude": 110.3848861, "latitude": -7.801125, "iconsrc": "https://peta.jogjakota.go.id/assets/icon_marker/placeholder.png", "kategori": "Tikor WiFi Free Hotspot" }, "geometry": { "type": "Point", "coordinates": [ 110.3848861, -7.801125 ] } },
{ "type": "Feature", "properties": { "id": 32, "title": "RTHP BRONTOKUSUMAN RW 05", "descriptio": null, "kecamatan": "Mergangsan", "kelurahan": "Brontokusuman", "longitude": 110.3715833, "latitude": -7.8181389, "iconsrc": "https://peta.jogjakota.go.id/assets/icon_marker/placeholder.png", "kategori": "Tikor WiFi Free Hotspot" }, "geometry": { "type": "Point", "coordinates": [ 110.3715833, -7.8181389 ] } },
{ "type": "Feature", "properties": { "id": 33, "title": "RTHP PURBAYAN RW 03", "descriptio": null, "kecamatan": "Kotagede", "kelurahan": "Purbayan", "longitude": 110.402325, "latitude": -7.8222833, "iconsrc": "https://peta.jogjakota.go.id/assets/icon_marker/placeholder.png", "kategori": "Tikor WiFi Free Hotspot" }, "geometry": { "type": "Point", "coordinates": [ 110.402325, -7.8222833 ] } },
{ "type": "Feature", "properties": { "id": 34, "title": "RTHP REJOWINANGUN RW05", "descriptio": null, "kecamatan": "Kotagede", "kelurahan": "Rejowinangun", "longitude": 110.400911, "latitude": -7.808487, "iconsrc": "https://peta.jogjakota.go.id/assets/icon_marker/placeholder.png", "kategori": "Tikor WiFi Free Hotspot" }, "geometry": { "type": "Point", "coordinates": [ 110.400911, -7.808487 ] } },
{ "type": "Feature", "properties": { "id": 35, "title": "POS Ronda RW.07 (Utara kantor Kel. TP)", "descriptio": null, "kecamatan": "Danurejan", "kelurahan": "Tegalpanggung", "longitude": 110.372603, "latitude": -7.790646, "iconsrc": "https://peta.jogjakota.go.id/assets/icon_marker/placeholder.png", "kategori": "Tikor WiFi Free Hotspot" }, "geometry": { "type": "Point", "coordinates": [ 110.372603, -7.790646 ] } },
{ "type": "Feature", "properties": { "id": 36, "title": "Balai Catur Warga RW.14", "descriptio": null, "kecamatan": "Kraton", "kelurahan": "Panembahan", "longitude": 110.3668005, "latitude": -7.8079815, "iconsrc": "https://peta.jogjakota.go.id/assets/icon_marker/placeholder.png", "kategori": "Tikor WiFi Free Hotspot" }, "geometry": { "type": "Point", "coordinates": [ 110.3668005, -7.8079815 ] } },
{ "type": "Feature", "properties": { "id": 37, "title": "Balai/Gedung Serbaguna Cokrodirjan", "descriptio": null, "kecamatan": "Danurejan", "kelurahan": "Suryatmajan", "longitude": 110.370166, "latitude": -7.7959918, "iconsrc": "https://peta.jogjakota.go.id/assets/icon_marker/placeholder.png", "kategori": "Tikor WiFi Free Hotspot" }, "geometry": { "type": "Point", "coordinates": [ 110.370166, -7.7959918 ] } },
{ "type": "Feature", "properties": { "id": 38, "title": "BALAI RW 3 n 4 GEMBKALAAN ATAS", "descriptio": null, "kecamatan": "Danurejan", "kelurahan": "Suryatmajan", "longitude": 110.3675583, "latitude": -7.7923611, "iconsrc": "https://peta.jogjakota.go.id/assets/icon_marker/placeholder.png", "kategori": "Tikor WiFi Free Hotspot" }, "geometry": { "type": "Point", "coordinates": [ 110.3675583, -7.7923611 ] } },
{ "type": "Feature", "properties": { "id": 39, "title": "Balai RW.06", "descriptio": null, "kecamatan": "Kotagede", "kelurahan": "Purbayan", "longitude": 110.40308, "latitude": -7.82637, "iconsrc": "https://peta.jogjakota.go.id/assets/icon_marker/placeholder.png", "kategori": "Tikor WiFi Free Hotspot" }, "geometry": { "type": "Point", "coordinates": [ 110.40308, -7.82637 ] } },
{ "type": "Feature", "properties": { "id": 40, "title": "Gedung serbaguna gereja baciro", "descriptio": null, "kecamatan": "Gondokusuman", "kelurahan": "Baciro", "longitude": 110.3895583, "latitude": -7.7919944, "iconsrc": "https://peta.jogjakota.go.id/assets/icon_marker/placeholder.png", "kategori": "Tikor WiFi Free Hotspot" }, "geometry": { "type": "Point", "coordinates": [ 110.3895583, -7.7919944 ] } },
{ "type": "Feature", "properties": { "id": 41, "title": "Gedung GKS Widyamandala", "descriptio": null, "kecamatan": "Gondokusuman", "kelurahan": "Kotabaru", "longitude": 110.3714528, "latitude": -7.7885944, "iconsrc": "https://peta.jogjakota.go.id/assets/icon_marker/placeholder.png", "kategori": "Tikor WiFi Free Hotspot" }, "geometry": { "type": "Point", "coordinates": [ 110.3714528, -7.7885944 ] } },
{ "type": "Feature", "properties": { "id": 42, "title": "Balai serbaguna kricak kudul", "descriptio": null, "kecamatan": "Tegalrejo", "kelurahan": "Kricak", "longitude": 110.3586256, "latitude": -7.7771191, "iconsrc": "https://peta.jogjakota.go.id/assets/icon_marker/placeholder.png", "kategori": "Tikor WiFi Free Hotspot" }, "geometry": { "type": "Point", "coordinates": [ 110.3586256, -7.7771191 ] } },
{ "type": "Feature", "properties": { "id": 43, "title": "Balai RW 05", "descriptio": null, "kecamatan": "Ngampilan", "kelurahan": "Notoprajan", "longitude": 110.3575056, "latitude": -7.8017611, "iconsrc": "https://peta.jogjakota.go.id/assets/icon_marker/placeholder.png", "kategori": "Tikor WiFi Free Hotspot" }, "geometry": { "type": "Point", "coordinates": [ 110.3575056, -7.8017611 ] } },
{ "type": "Feature", "properties": { "id": 44, "title": "Balai RW 09", "descriptio": null, "kecamatan": "Kotagede", "kelurahan": "Prenggan", "longitude": 110.40008, "latitude": -7.82706, "iconsrc": "https://peta.jogjakota.go.id/assets/icon_marker/placeholder.png", "kategori": "Tikor WiFi Free Hotspot" }, "geometry": { "type": "Point", "coordinates": [ 110.40008, -7.82706 ] } },
{ "type": "Feature", "properties": { "id": 45, "title": "Balai RT 52 RW 12 Badran", "descriptio": null, "kecamatan": "Jetis", "kelurahan": "Bumijo", "longitude": 110.3584583, "latitude": -7.7853917, "iconsrc": "https://peta.jogjakota.go.id/assets/icon_marker/placeholder.png", "kategori": "Tikor WiFi Free Hotspot" }, "geometry": { "type": "Point", "coordinates": [ 110.3584583, -7.7853917 ] } },
{ "type": "Feature", "properties": { "id": 46, "title": "Masjid Al-Hidayah", "descriptio": null, "kecamatan": "Jetis", "kelurahan": "Cokrodiningratan", "longitude": 110.3684954, "latitude": -7.7819385, "iconsrc": "https://peta.jogjakota.go.id/assets/icon_marker/placeholder.png", "kategori": "Tikor WiFi Free Hotspot" }, "geometry": { "type": "Point", "coordinates": [ 110.3684954, -7.7819385 ] } },
{ "type": "Feature", "properties": { "id": 47, "title": "Balai Giri Arum", "descriptio": null, "kecamatan": "Pakualaman", "kelurahan": "Gunungketur", "longitude": 110.3780472, "latitude": -7.8002861, "iconsrc": "https://peta.jogjakota.go.id/assets/icon_marker/placeholder.png", "kategori": "Tikor WiFi Free Hotspot" }, "geometry": { "type": "Point", "coordinates": [ 110.3780472, -7.8002861 ] } },
{ "type": "Feature", "properties": { "id": 48, "title": "balai rw 3", "descriptio": null, "kecamatan": "Kotagede", "kelurahan": "Prenggan", "longitude": 110.3960868, "latitude": -7.821739, "iconsrc": "https://peta.jogjakota.go.id/assets/icon_marker/placeholder.png", "kategori": "Tikor WiFi Free Hotspot" }, "geometry": { "type": "Point", "coordinates": [ 110.3960868, -7.821739 ] } },
{ "type": "Feature", "properties": { "id": 49, "title": "Balai RW 17", "descriptio": null, "kecamatan": "Gedongtengen", "kelurahan": "Pringgokusuman", "longitude": 110.3612278, "latitude": -7.7956917, "iconsrc": "https://peta.jogjakota.go.id/assets/icon_marker/placeholder.png", "kategori": "Tikor WiFi Free Hotspot" }, "geometry": { "type": "Point", "coordinates": [ 110.3612278, -7.7956917 ] } },
{ "type": "Feature", "properties": { "id": 50, "title": "Balai RW. 07 tim pasko", "descriptio": null, "kecamatan": "Kotagede", "kelurahan": "Purbayan", "longitude": 110.4015111, "latitude": -7.8281167, "iconsrc": "https://peta.jogjakota.go.id/assets/icon_marker/placeholder.png", "kategori": "Tikor WiFi Free Hotspot" }, "geometry": { "type": "Point", "coordinates": [ 110.4015111, -7.8281167 ] } },
{ "type": "Feature", "properties": { "id": 51, "title": "Balai RW 01", "descriptio": null, "kecamatan": "Pakualaman", "kelurahan": "Purwokinanti", "longitude": 110.3700205, "latitude": -7.7974503, "iconsrc": "https://peta.jogjakota.go.id/assets/icon_marker/placeholder.png", "kategori": "Tikor WiFi Free Hotspot" }, "geometry": { "type": "Point", "coordinates": [ 110.3700205, -7.7974503 ] } },
{ "type": "Feature", "properties": { "id": 52, "title": "Balai RK (Di ganti Balai RW 08 Giwangan, Umbulharjo)", "descriptio": null, "kecamatan": "Umbulharjo", "kelurahan": "Giwangan", "longitude": 110.3817146, "latitude": -7.7978315, "iconsrc": "https://peta.jogjakota.go.id/assets/icon_marker/placeholder.png", "kategori": "Tikor WiFi Free Hotspot" }, "geometry": { "type": "Point", "coordinates": [ 110.3817146, -7.7978315 ] } },
{ "type": "Feature", "properties": { "id": 53, "title": "Balai Pertemuan Warga Sayidan", "descriptio": null, "kecamatan": "Gondomanan", "kelurahan": "Prawirodirjan", "longitude": 110.3709583, "latitude": -7.8025639, "iconsrc": "https://peta.jogjakota.go.id/assets/icon_marker/placeholder.png", "kategori": "Tikor WiFi Free Hotspot" }, "geometry": { "type": "Point", "coordinates": [ 110.3709583, -7.8025639 ] } },
{ "type": "Feature", "properties": { "id": 54, "title": "Balai RW 7 Suryowojayan", "descriptio": null, "kecamatan": "Mantrijeron", "kelurahan": "Gedongkiwo", "longitude": 110.355234, "latitude": -7.812351, "iconsrc": "https://peta.jogjakota.go.id/assets/icon_marker/placeholder.png", "kategori": "Tikor WiFi Free Hotspot" }, "geometry": { "type": "Point", "coordinates": [ 110.355234, -7.812351 ] } },
{ "type": "Feature", "properties": { "id": 55, "title": "Posyandu RW 7", "descriptio": null, "kecamatan": "Umbulharjo", "kelurahan": "Mujamuju", "longitude": 110.3932528, "latitude": -7.79895, "iconsrc": "https://peta.jogjakota.go.id/assets/icon_marker/placeholder.png", "kategori": "Tikor WiFi Free Hotspot" }, "geometry": { "type": "Point", "coordinates": [ 110.3932528, -7.79895 ] } },
{ "type": "Feature", "properties": { "id": 56, "title": "Kantor RW 02 Ngadinegaran", "descriptio": null, "kecamatan": "Mantrijeron", "kelurahan": "Mantrijeron", "longitude": 110.363936, "latitude": -7.814463, "iconsrc": "https://peta.jogjakota.go.id/assets/icon_marker/placeholder.png", "kategori": "Tikor WiFi Free Hotspot" }, "geometry": { "type": "Point", "coordinates": [ 110.363936, -7.814463 ] } },
{ "type": "Feature", "properties": { "id": 57, "title": "Balai Kampung Kumendaman", "descriptio": null, "kecamatan": "Mantrijeron", "kelurahan": "Suryodiningratan", "longitude": 110.361528, "latitude": -7.815528, "iconsrc": "https://peta.jogjakota.go.id/assets/icon_marker/placeholder.png", "kategori": "Tikor WiFi Free Hotspot" }, "geometry": { "type": "Point", "coordinates": [ 110.361528, -7.815528 ] } },
{ "type": "Feature", "properties": { "id": 58, "title": "balai rw 8", "descriptio": null, "kecamatan": "Umbulharjo", "kelurahan": "Tahunan", "longitude": 110.3838389, "latitude": -7.8091972, "iconsrc": "https://peta.jogjakota.go.id/assets/icon_marker/placeholder.png", "kategori": "Tikor WiFi Free Hotspot" }, "geometry": { "type": "Point", "coordinates": [ 110.3838389, -7.8091972 ] } },
{ "type": "Feature", "properties": { "id": 59, "title": "Balai kampung timuran", "descriptio": null, "kecamatan": "Mergangsan", "kelurahan": "Brontokusuman", "longitude": 110.3696568, "latitude": -7.8167909, "iconsrc": "https://peta.jogjakota.go.id/assets/icon_marker/placeholder.png", "kategori": "Tikor WiFi Free Hotspot" }, "geometry": { "type": "Point", "coordinates": [ 110.3696568, -7.8167909 ] } },
{ "type": "Feature", "properties": { "id": 60, "title": "Balai Kampung Pathuk", "descriptio": null, "kecamatan": "Ngampilan", "kelurahan": "Ngampilan", "longitude": 110.3614556, "latitude": -7.7967028, "iconsrc": "https://peta.jogjakota.go.id/assets/icon_marker/placeholder.png", "kategori": "Tikor WiFi Free Hotspot" }, "geometry": { "type": "Point", "coordinates": [ 110.3614556, -7.7967028 ] } },
{ "type": "Feature", "properties": { "id": 61, "title": "Balai RW 3 Ngupasan", "descriptio": null, "kecamatan": "Gondomanan", "kelurahan": "Ngupasan", "longitude": 110.3619028, "latitude": -7.7979694, "iconsrc": "https://peta.jogjakota.go.id/assets/icon_marker/placeholder.png", "kategori": "Tikor WiFi Free Hotspot" }, "geometry": { "type": "Point", "coordinates": [ 110.3619028, -7.7979694 ] } },
{ "type": "Feature", "properties": { "id": 62, "title": "balai rw 11", "descriptio": null, "kecamatan": "Wirobrajan", "kelurahan": "Pakuncen", "longitude": 110.354356, "latitude": -7.799582, "iconsrc": "https://peta.jogjakota.go.id/assets/icon_marker/placeholder.png", "kategori": "Tikor WiFi Free Hotspot" }, "geometry": { "type": "Point", "coordinates": [ 110.354356, -7.799582 ] } },
{ "type": "Feature", "properties": { "id": 63, "title": "BALAI PANCA RW REJOWINANGUN", "descriptio": null, "kecamatan": "Kotagede", "kelurahan": "Rejowinangun", "longitude": 110.3972638, "latitude": -7.8085575, "iconsrc": "https://peta.jogjakota.go.id/assets/icon_marker/placeholder.png", "kategori": "Tikor WiFi Free Hotspot" }, "geometry": { "type": "Point", "coordinates": [ 110.3972638, -7.8085575 ] } },
{ "type": "Feature", "properties": { "id": 64, "title": "masjid baitul karim", "descriptio": null, "kecamatan": "Mergangsan", "kelurahan": "Brontokusuman", "longitude": 110.3732917, "latitude": -7.8170806, "iconsrc": "https://peta.jogjakota.go.id/assets/icon_marker/placeholder.png", "kategori": "Tikor WiFi Free Hotspot" }, "geometry": { "type": "Point", "coordinates": [ 110.3732917, -7.8170806 ] } },
{ "type": "Feature", "properties": { "id": 65, "title": "Balai RW 5", "descriptio": null, "kecamatan": "Umbulharjo", "kelurahan": "Warungboto", "longitude": 110.3886333, "latitude": -7.807325, "iconsrc": "https://peta.jogjakota.go.id/assets/icon_marker/placeholder.png", "kategori": "Tikor WiFi Free Hotspot" }, "geometry": { "type": "Point", "coordinates": [ 110.3886333, -7.807325 ] } },
{ "type": "Feature", "properties": { "id": 66, "title": "Bale RW.13 Malangan", "descriptio": null, "kecamatan": "Umbulharjo", "kelurahan": "Giwangan", "longitude": 110.390077, "latitude": -7.8356405, "iconsrc": "https://peta.jogjakota.go.id/assets/icon_marker/placeholder.png", "kategori": "Tikor WiFi Free Hotspot" }, "geometry": { "type": "Point", "coordinates": [ 110.390077, -7.8356405 ] } },
{ "type": "Feature", "properties": { "id": 67, "title": "balai rw 7", "descriptio": null, "kecamatan": "jetis", "kelurahan": "Gowongan", "longitude": 110.3700528, "latitude": -7.7836861, "iconsrc": "https://peta.jogjakota.go.id/assets/icon_marker/placeholder.png", "kategori": "Tikor WiFi Free Hotspot" }, "geometry": { "type": "Point", "coordinates": [ 110.3700528, -7.7836861 ] } },
{ "type": "Feature", "properties": { "id": 68, "title": "Balai Langenastran", "descriptio": null, "kecamatan": "Kraton", "kelurahan": "Panembahan", "longitude": 110.362875, "latitude": -7.8134694, "iconsrc": "https://peta.jogjakota.go.id/assets/icon_marker/placeholder.png", "kategori": "Tikor WiFi Free Hotspot" }, "geometry": { "type": "Point", "coordinates": [ 110.362875, -7.8134694 ] } },
{ "type": "Feature", "properties": { "id": 69, "title": "Balai RW 1", "descriptio": null, "kecamatan": "Umbulharjo", "kelurahan": "Sorosutan", "longitude": 110.377515, "latitude": -7.816623, "iconsrc": "https://peta.jogjakota.go.id/assets/icon_marker/placeholder.png", "kategori": "Tikor WiFi Free Hotspot" }, "geometry": { "type": "Point", "coordinates": [ 110.377515, -7.816623 ] } },
{ "type": "Feature", "properties": { "id": 70, "title": "BALAI RW PAJEKSAN", "descriptio": null, "kecamatan": "Gedongtengen", "kelurahan": "Sosromenduran", "longitude": 110.364733, "latitude": -7.794718, "iconsrc": "https://peta.jogjakota.go.id/assets/icon_marker/placeholder.png", "kategori": "Tikor WiFi Free Hotspot" }, "geometry": { "type": "Point", "coordinates": [ 110.364733, -7.794718 ] } },
{ "type": "Feature", "properties": { "id": 71, "title": "Balai Muslimin", "descriptio": null, "kecamatan": "Umbulharjo", "kelurahan": "Warungboto", "longitude": 110.394043, "latitude": -7.810827, "iconsrc": "https://peta.jogjakota.go.id/assets/icon_marker/placeholder.png", "kategori": "Tikor WiFi Free Hotspot" }, "geometry": { "type": "Point", "coordinates": [ 110.394043, -7.810827 ] } },
{ "type": "Feature", "properties": { "id": 72, "title": "Balai RW 07", "descriptio": null, "kecamatan": "Wirobrajan", "kelurahan": "Wirobrajan", "longitude": 110.3533003, "latitude": -7.8035394, "iconsrc": "https://peta.jogjakota.go.id/assets/icon_marker/placeholder.png", "kategori": "Tikor WiFi Free Hotspot" }, "geometry": { "type": "Point", "coordinates": [ 110.3533003, -7.8035394 ] } },
{ "type": "Feature", "properties": { "id": 73, "title": "Balai RW 13", "descriptio": null, "kecamatan": "Umbulharjo", "kelurahan": "Pandeyan", "longitude": 110.3934889, "latitude": -7.8210639, "iconsrc": "https://peta.jogjakota.go.id/assets/icon_marker/placeholder.png", "kategori": "Tikor WiFi Free Hotspot" }, "geometry": { "type": "Point", "coordinates": [ 110.3934889, -7.8210639 ] } },
{ "type": "Feature", "properties": { "id": 74, "title": "Balai rw 5", "descriptio": null, "kecamatan": "Wirobrajan", "kelurahan": "Pakuncen", "longitude": 110.349377, "latitude": -7.798173, "iconsrc": "https://peta.jogjakota.go.id/assets/icon_marker/placeholder.png", "kategori": "Tikor WiFi Free Hotspot" }, "geometry": { "type": "Point", "coordinates": [ 110.349377, -7.798173 ] } },
{ "type": "Feature", "properties": { "id": 75, "title": "Balai RW 6", "descriptio": null, "kecamatan": "Kraton", "kelurahan": "Patehan", "longitude": 110.359625, "latitude": -7.813225, "iconsrc": "https://peta.jogjakota.go.id/assets/icon_marker/placeholder.png", "kategori": "Tikor WiFi Free Hotspot" }, "geometry": { "type": "Point", "coordinates": [ 110.359625, -7.813225 ] } },
{ "type": "Feature", "properties": { "id": 76, "title": "Balai RW 02 Bintaran", "descriptio": null, "kecamatan": "Mergangsan", "kelurahan": "Wirogunan", "longitude": 110.3721028, "latitude": -7.8039194, "iconsrc": "https://peta.jogjakota.go.id/assets/icon_marker/placeholder.png", "kategori": "Tikor WiFi Free Hotspot" }, "geometry": { "type": "Point", "coordinates": [ 110.3721028, -7.8039194 ] } },
{ "type": "Feature", "properties": { "id": 77, "title": "Balai Serbaguna RW 1 Tompeyan", "descriptio": null, "kecamatan": "Tegalrejo", "kelurahan": "Tegalrejo", "longitude": 110.3549167, "latitude": -7.7840194, "iconsrc": "https://peta.jogjakota.go.id/assets/icon_marker/placeholder.png", "kategori": "Tikor WiFi Free Hotspot" }, "geometry": { "type": "Point", "coordinates": [ 110.3549167, -7.7840194 ] } },
{ "type": "Feature", "properties": { "id": 78, "title": "Balai RW 01", "descriptio": null, "kecamatan": "Wirobrajan", "kelurahan": "wirobrajan", "longitude": 110.3489306, "latitude": -7.8021503, "iconsrc": "https://peta.jogjakota.go.id/assets/icon_marker/placeholder.png", "kategori": "Tikor WiFi Free Hotspot" }, "geometry": { "type": "Point", "coordinates": [ 110.3489306, -7.8021503 ] } },
{ "type": "Feature", "properties": { "id": 79, "title": "Balai RW 05", "descriptio": null, "kecamatan": "Umbulharjo", "kelurahan": "Sorosutan", "longitude": 110.378556, "latitude": -7.82025, "iconsrc": "https://peta.jogjakota.go.id/assets/icon_marker/placeholder.png", "kategori": "Tikor WiFi Free Hotspot" }, "geometry": { "type": "Point", "coordinates": [ 110.378556, -7.82025 ] } },
{ "type": "Feature", "properties": { "id": 80, "title": "Balai Petinggen", "descriptio": null, "kecamatan": "Tegalrejo", "kelurahan": "Karangwaru", "longitude": 110.3683, "latitude": -7.7718111, "iconsrc": "https://peta.jogjakota.go.id/assets/icon_marker/placeholder.png", "kategori": "Tikor WiFi Free Hotspot" }, "geometry": { "type": "Point", "coordinates": [ 110.3683, -7.7718111 ] } },
{ "type": "Feature", "properties": { "id": 81, "title": "Masjid Al-Fajar", "descriptio": null, "kecamatan": "Tegalrejo", "kelurahan": "Karangwaru", "longitude": 110.3651, "latitude": -7.7713139, "iconsrc": "https://peta.jogjakota.go.id/assets/icon_marker/placeholder.png", "kategori": "Tikor WiFi Free Hotspot" }, "geometry": { "type": "Point", "coordinates": [ 110.3651, -7.7713139 ] } },
{ "type": "Feature", "properties": { "id": 82, "title": "Balai RW 09 Iromejan", "descriptio": null, "kecamatan": "Gondokusuman", "kelurahan": "Klitren", "longitude": 110.3833028, "latitude": -7.7807944, "iconsrc": "https://peta.jogjakota.go.id/assets/icon_marker/placeholder.png", "kategori": "Tikor WiFi Free Hotspot" }, "geometry": { "type": "Point", "coordinates": [ 110.3833028, -7.7807944 ] } },
{ "type": "Feature", "properties": { "id": 83, "title": "Balai RT 35 RW 08 Bumijo", "descriptio": null, "kecamatan": "Jetis", "kelurahan": "Bumijo", "longitude": 110.3596806, "latitude": -7.7840472, "iconsrc": "https://peta.jogjakota.go.id/assets/icon_marker/placeholder.png", "kategori": "Tikor WiFi Free Hotspot" }, "geometry": { "type": "Point", "coordinates": [ 110.3596806, -7.7840472 ] } },
{ "type": "Feature", "properties": { "id": 84, "title": "Balai Anjangsih", "descriptio": null, "kecamatan": "Jetis", "kelurahan": "Cokrodiningratan", "longitude": 110.3694194, "latitude": -7.7789889, "iconsrc": "https://peta.jogjakota.go.id/assets/icon_marker/placeholder.png", "kategori": "Tikor WiFi Free Hotspot" }, "geometry": { "type": "Point", "coordinates": [ 110.3694194, -7.7789889 ] } },
{ "type": "Feature", "properties": { "id": 85, "title": "Balai RW", "descriptio": null, "kecamatan": "Ngampilan", "kelurahan": "Ngampilan", "longitude": 110.358767, "latitude": -7.795854, "iconsrc": "https://peta.jogjakota.go.id/assets/icon_marker/placeholder.png", "kategori": "Tikor WiFi Free Hotspot" }, "geometry": { "type": "Point", "coordinates": [ 110.358767, -7.795854 ] } },
{ "type": "Feature", "properties": { "id": 86, "title": "Gedung balai rw 13", "descriptio": null, "kecamatan": "Kraton", "kelurahan": "Kadipaten", "longitude": 110.3600877, "latitude": -7.8065195, "iconsrc": "https://peta.jogjakota.go.id/assets/icon_marker/placeholder.png", "kategori": "Tikor WiFi Free Hotspot" }, "geometry": { "type": "Point", "coordinates": [ 110.3600877, -7.8065195 ] } },
{ "type": "Feature", "properties": { "id": 87, "title": "Balai Magersari RW4", "descriptio": null, "kecamatan": "Gondokusuman", "kelurahan": "Kotabaru", "longitude": 110.371911, "latitude": -7.788883, "iconsrc": "https://peta.jogjakota.go.id/assets/icon_marker/placeholder.png", "kategori": "Tikor WiFi Free Hotspot" }, "geometry": { "type": "Point", "coordinates": [ 110.371911, -7.788883 ] } },
{ "type": "Feature", "properties": { "id": 88, "title": "Ruang Kumpul Warga RW 02  Patangpuluhan Wirobrajan", "descriptio": null, "kecamatan": "Wirobrajan", "kelurahan": "Patangpuluhan", "longitude": 110.352047, "latitude": -7.809708, "iconsrc": "https://peta.jogjakota.go.id/assets/icon_marker/placeholder.png", "kategori": "Tikor WiFi Free Hotspot" }, "geometry": { "type": "Point", "coordinates": [ 110.352047, -7.809708 ] } },
{ "type": "Feature", "properties": { "id": 89, "title": "BALAI RK  BLUNYAHREJO", "descriptio": null, "kecamatan": "Tegalrejo", "kelurahan": "Karangwaru", "longitude": 110.365528, "latitude": -7.774306, "iconsrc": "https://peta.jogjakota.go.id/assets/icon_marker/placeholder.png", "kategori": "Tikor WiFi Free Hotspot" }, "geometry": { "type": "Point", "coordinates": [ 110.365528, -7.774306 ] } },
{ "type": "Feature", "properties": { "id": 90, "title": "Aula masjid mustaqim", "descriptio": null, "kecamatan": "Kotagede", "kelurahan": "Purbayan", "longitude": 110.401611, "latitude": -7.826417, "iconsrc": "https://peta.jogjakota.go.id/assets/icon_marker/placeholder.png", "kategori": "Tikor WiFi Free Hotspot" }, "geometry": { "type": "Point", "coordinates": [ 110.401611, -7.826417 ] } },
{ "type": "Feature", "properties": { "id": 91, "title": "Wisma Rosari Lt1. Gereja Pugeran", "descriptio": null, "kecamatan": "Mantrijeron", "kelurahan": "Suryodiningratan", "longitude": 110.356, "latitude": -7.81625, "iconsrc": "https://peta.jogjakota.go.id/assets/icon_marker/placeholder.png", "kategori": "Tikor WiFi Free Hotspot" }, "geometry": { "type": "Point", "coordinates": [ 110.356, -7.81625 ] } },
{ "type": "Feature", "properties": { "id": 92, "title": "Balai RW 15", "descriptio": null, "kecamatan": "Gondomanan", "kelurahan": "Prawirodirjan", "longitude": 110.372, "latitude": -7.804111, "iconsrc": "https://peta.jogjakota.go.id/assets/icon_marker/placeholder.png", "kategori": "Tikor WiFi Free Hotspot" }, "geometry": { "type": "Point", "coordinates": [ 110.372, -7.804111 ] } },
{ "type": "Feature", "properties": { "id": 93, "title": "Masjid nurul iman lantai 2", "descriptio": null, "kecamatan": "Kotagede", "kelurahan": "Prenggan", "longitude": 110.393833, "latitude": -7.814972, "iconsrc": "https://peta.jogjakota.go.id/assets/icon_marker/placeholder.png", "kategori": "Tikor WiFi Free Hotspot" }, "geometry": { "type": "Point", "coordinates": [ 110.393833, -7.814972 ] } },
{ "type": "Feature", "properties": { "id": 94, "title": "Balai RW 11", "descriptio": null, "kecamatan": "Jetis", "kelurahan": "Cokrodiningratan", "longitude": 110.370277, "latitude": -7.782545, "iconsrc": "https://peta.jogjakota.go.id/assets/icon_marker/placeholder.png", "kategori": "Tikor WiFi Free Hotspot" }, "geometry": { "type": "Point", "coordinates": [ 110.370277, -7.782545 ] } },
{ "type": "Feature", "properties": { "id": 95, "title": "Pos Ronda RW 7 RT 38", "descriptio": null, "kecamatan": "Wirobrajan", "kelurahan": "Patangpuluhan", "longitude": 110.350407, "latitude": -7.810123, "iconsrc": "https://peta.jogjakota.go.id/assets/icon_marker/placeholder.png", "kategori": "Tikor WiFi Free Hotspot" }, "geometry": { "type": "Point", "coordinates": [ 110.350407, -7.810123 ] } },
{ "type": "Feature", "properties": { "id": 96, "title": "Balai RW 20", "descriptio": null, "kecamatan": "Gondokusuman", "kelurahan": "Baciro", "longitude": 110.394924, "latitude": -7.790224, "iconsrc": "https://peta.jogjakota.go.id/assets/icon_marker/placeholder.png", "kategori": "Tikor WiFi Free Hotspot" }, "geometry": { "type": "Point", "coordinates": [ 110.394924, -7.790224 ] } },
{ "type": "Feature", "properties": { "id": 97, "title": "Balai Manunggal Karso Gajah Wong", "descriptio": null, "kecamatan": "Gondokusuman", "kelurahan": "Baciro", "longitude": 110.397322, "latitude": -7.789287, "iconsrc": "https://peta.jogjakota.go.id/assets/icon_marker/placeholder.png", "kategori": "Tikor WiFi Free Hotspot" }, "geometry": { "type": "Point", "coordinates": [ 110.397322, -7.789287 ] } },
{ "type": "Feature", "properties": { "id": 98, "title": "Balai RW 11 Kauman Ngupasan", "descriptio": null, "kecamatan": "Gondomanan", "kelurahan": "Ngupasan", "longitude": 110.363502, "latitude": -7.802177, "iconsrc": "https://peta.jogjakota.go.id/assets/icon_marker/placeholder.png", "kategori": "Tikor WiFi Free Hotspot" }, "geometry": { "type": "Point", "coordinates": [ 110.363502, -7.802177 ] } },
{ "type": "Feature", "properties": { "id": 99, "title": "halaman masjid nurul mubin rw 8", "descriptio": null, "kecamatan": "Mantrijeron", "kelurahan": "Gedongkiwo", "longitude": 110.352598, "latitude": -7.813022, "iconsrc": "https://peta.jogjakota.go.id/assets/icon_marker/placeholder.png", "kategori": "Tikor WiFi Free Hotspot" }, "geometry": { "type": "Point", "coordinates": [ 110.352598, -7.813022 ] } },
{ "type": "Feature", "properties": { "id": 100, "title": "pos ronda rt 67", "descriptio": null, "kecamatan": "Mantrijeron", "kelurahan": "Gedongkiwo", "longitude": 110.352822, "latitude": -7.81861, "iconsrc": "https://peta.jogjakota.go.id/assets/icon_marker/placeholder.png", "kategori": "Tikor WiFi Free Hotspot" }, "geometry": { "type": "Point", "coordinates": [ 110.352822, -7.81861 ] } },
{ "type": "Feature", "properties": { "id": 101, "title": "Balai RW 12 Kauman Ngupasan", "descriptio": null, "kecamatan": "Gondomanan", "kelurahan": "Ngupasan", "longitude": 110.361417, "latitude": -7.803889, "iconsrc": "https://peta.jogjakota.go.id/assets/icon_marker/placeholder.png", "kategori": "Tikor WiFi Free Hotspot" }, "geometry": { "type": "Point", "coordinates": [ 110.361417, -7.803889 ] } },
{ "type": "Feature", "properties": { "id": 102, "title": "Masjid An -  Nashir", "descriptio": null, "kecamatan": "Umbulharjo", "kelurahan": "Sorosutan", "longitude": 110.384833, "latitude": -7.8235, "iconsrc": "https://peta.jogjakota.go.id/assets/icon_marker/placeholder.png", "kategori": "Tikor WiFi Free Hotspot" }, "geometry": { "type": "Point", "coordinates": [ 110.384833, -7.8235 ] } },
{ "type": "Feature", "properties": { "id": 103, "title": "Balai RK Tegalrejo", "descriptio": null, "kecamatan": "Tegalrejo", "kelurahan": "Tegalrejo", "longitude": 110.350692, "latitude": -7.788625, "iconsrc": "https://peta.jogjakota.go.id/assets/icon_marker/placeholder.png", "kategori": "Tikor WiFi Free Hotspot" }, "geometry": { "type": "Point", "coordinates": [ 110.350692, -7.788625 ] } },
{ "type": "Feature", "properties": { "id": 104, "title": "Masjid Nur Muttaqien Sudagaran", "descriptio": null, "kecamatan": "Tegalrejo", "kelurahan": "Tegalrejo", "longitude": 110.354856, "latitude": -7.792801, "iconsrc": "https://peta.jogjakota.go.id/assets/icon_marker/placeholder.png", "kategori": "Tikor WiFi Free Hotspot" }, "geometry": { "type": "Point", "coordinates": [ 110.354856, -7.792801 ] } },
{ "type": "Feature", "properties": { "id": 105, "title": "Masjid P. Diponegoro Tegalrejo", "descriptio": null, "kecamatan": "Tegalrejo", "kelurahan": "Tegalrejo", "longitude": 110.351123, "latitude": -7.787486, "iconsrc": "https://peta.jogjakota.go.id/assets/icon_marker/placeholder.png", "kategori": "Tikor WiFi Free Hotspot" }, "geometry": { "type": "Point", "coordinates": [ 110.351123, -7.787486 ] } },
{ "type": "Feature", "properties": { "id": 106, "title": "Masjid Hidayah Al Ma'ruf Joyonegaran MG 2 / 943", "descriptio": null, "kecamatan": "Mergangsan", "kelurahan": "Wirogunan", "longitude": 110.378608, "latitude": -7.807729, "iconsrc": "https://peta.jogjakota.go.id/assets/icon_marker/placeholder.png", "kategori": "Tikor WiFi Free Hotspot" }, "geometry": { "type": "Point", "coordinates": [ 110.378608, -7.807729 ] } },
{ "type": "Feature", "properties": { "id": 107, "title": "Balai RW 8 Sorosutan", "descriptio": null, "kecamatan": "Umbulharjo", "kelurahan": "Sorosutan", "longitude": 110.394194, "latitude": -7.833639, "iconsrc": "https://peta.jogjakota.go.id/assets/icon_marker/placeholder.png", "kategori": "Tikor WiFi Free Hotspot" }, "geometry": { "type": "Point", "coordinates": [ 110.394194, -7.833639 ] } },
{ "type": "Feature", "properties": { "id": 108, "title": "Masjid Pasarean Sonyoragi Baciro", "descriptio": null, "kecamatan": "Gondokusuman", "kelurahan": "Baciro", "longitude": 110.38559, "latitude": -7.79291, "iconsrc": "https://peta.jogjakota.go.id/assets/icon_marker/placeholder.png", "kategori": "Tikor WiFi Free Hotspot" }, "geometry": { "type": "Point", "coordinates": [ 110.38559, -7.79291 ] } },
{ "type": "Feature", "properties": { "id": 109, "title": "Balai Lempuyangan Bausasran", "descriptio": null, "kecamatan": "Danurejan", "kelurahan": "Bausasran", "longitude": 110.375314, "latitude": -7.792049, "iconsrc": "https://peta.jogjakota.go.id/assets/icon_marker/placeholder.png", "kategori": "Tikor WiFi Free Hotspot" }, "geometry": { "type": "Point", "coordinates": [ 110.375314, -7.792049 ] } },
{ "type": "Feature", "properties": { "id": 110, "title": "masjid fisabillilah rw 4 bener", "descriptio": null, "kecamatan": "Tegalrejo", "kelurahan": "Bener", "longitude": 110.356567, "latitude": -7.775898, "iconsrc": "https://peta.jogjakota.go.id/assets/icon_marker/placeholder.png", "kategori": "Tikor WiFi Free Hotspot" }, "geometry": { "type": "Point", "coordinates": [ 110.356567, -7.775898 ] } },
{ "type": "Feature", "properties": { "id": 111, "title": "Pos Ronda Rt 24", "descriptio": null, "kecamatan": "Mergangsan", "kelurahan": "Brontokusuman", "longitude": 110.371116, "latitude": -7.818771, "iconsrc": "https://peta.jogjakota.go.id/assets/icon_marker/placeholder.png", "kategori": "Tikor WiFi Free Hotspot" }, "geometry": { "type": "Point", "coordinates": [ 110.371116, -7.818771 ] } },
{ "type": "Feature", "properties": { "id": 112, "title": "Balai rw 4 Bumijo", "descriptio": null, "kecamatan": "Jetis", "kelurahan": "Bumijo", "longitude": 110.359604, "latitude": -7.782111, "iconsrc": "https://peta.jogjakota.go.id/assets/icon_marker/placeholder.png", "kategori": "Tikor WiFi Free Hotspot" }, "geometry": { "type": "Point", "coordinates": [ 110.359604, -7.782111 ] } },
{ "type": "Feature", "properties": { "id": 113, "title": "RW 4 cokrodiningratan", "descriptio": null, "kecamatan": "Jetis", "kelurahan": "Cokrodiningratan", "longitude": 110.36605, "latitude": -7.778792, "iconsrc": "https://peta.jogjakota.go.id/assets/icon_marker/placeholder.png", "kategori": "Tikor WiFi Free Hotspot" }, "geometry": { "type": "Point", "coordinates": [ 110.36605, -7.778792 ] } },
{ "type": "Feature", "properties": { "id": 114, "title": "Balai RW 12 Demangan", "descriptio": null, "kecamatan": "Gondokusuman", "kelurahan": "Demangan", "longitude": 110.385749, "latitude": -7.786492, "iconsrc": "https://peta.jogjakota.go.id/assets/icon_marker/placeholder.png", "kategori": "Tikor WiFi Free Hotspot" }, "geometry": { "type": "Point", "coordinates": [ 110.385749, -7.786492 ] } },
{ "type": "Feature", "properties": { "id": 116, "title": "Taman Paleredan Kali Gajah Wong", "descriptio": null, "kecamatan": "Umbulharjo", "kelurahan": "Giwangan", "longitude": 110.394026, "latitude": -7.831091, "iconsrc": "https://peta.jogjakota.go.id/assets/icon_marker/placeholder.png", "kategori": "Tikor WiFi Free Hotspot" }, "geometry": { "type": "Point", "coordinates": [ 110.394026, -7.831091 ] } },
{ "type": "Feature", "properties": { "id": 117, "title": "Balai RW 3 gowongan", "descriptio": null, "kecamatan": "Jetis", "kelurahan": "Gowongan", "longitude": 110.365365, "latitude": -7.784607, "iconsrc": "https://peta.jogjakota.go.id/assets/icon_marker/placeholder.png", "kategori": "Tikor WiFi Free Hotspot" }, "geometry": { "type": "Point", "coordinates": [ 110.365365, -7.784607 ] } },
{ "type": "Feature", "properties": { "id": 118, "title": "Balai RW 7 margoyasan gunungketur", "descriptio": null, "kecamatan": "Pakualaman", "kelurahan": "Gunungketur", "longitude": 110.377764, "latitude": -7.802762, "iconsrc": "https://peta.jogjakota.go.id/assets/icon_marker/placeholder.png", "kategori": "Tikor WiFi Free Hotspot" }, "geometry": { "type": "Point", "coordinates": [ 110.377764, -7.802762 ] } },
{ "type": "Feature", "properties": { "id": 119, "title": "Balai RW 5 kadipaten", "descriptio": null, "kecamatan": "Kraton", "kelurahan": "Kadipaten", "longitude": 110.356573, "latitude": -7.80462, "iconsrc": "https://peta.jogjakota.go.id/assets/icon_marker/placeholder.png", "kategori": "Tikor WiFi Free Hotspot" }, "geometry": { "type": "Point", "coordinates": [ 110.356573, -7.80462 ] } },
{ "type": "Feature", "properties": { "id": 120, "title": "Balai Pertemuan Bangirejo rw 10 karangwaru", "descriptio": null, "kecamatan": "Tegalrejo", "kelurahan": "Karangwaru", "longitude": 110.364, "latitude": -7.779194, "iconsrc": "https://peta.jogjakota.go.id/assets/icon_marker/placeholder.png", "kategori": "Tikor WiFi Free Hotspot" }, "geometry": { "type": "Point", "coordinates": [ 110.364, -7.779194 ] } },
{ "type": "Feature", "properties": { "id": 121, "title": "Balai RW 10 keparakan", "descriptio": null, "kecamatan": "Mergangsan", "kelurahan": "Keparakan", "longitude": 110.373, "latitude": -7.811444, "iconsrc": "https://peta.jogjakota.go.id/assets/icon_marker/placeholder.png", "kategori": "Tikor WiFi Free Hotspot" }, "geometry": { "type": "Point", "coordinates": [ 110.373, -7.811444 ] } },
{ "type": "Feature", "properties": { "id": 122, "title": "Balai RW14 Klitren", "descriptio": null, "kecamatan": "Gondokusuman", "kelurahan": "Klitren", "longitude": 110.387091, "latitude": -7.784503, "iconsrc": "https://peta.jogjakota.go.id/assets/icon_marker/placeholder.png", "kategori": "Tikor WiFi Free Hotspot" }, "geometry": { "type": "Point", "coordinates": [ 110.387091, -7.784503 ] } },
{ "type": "Feature", "properties": { "id": 123, "title": "Asrama KOMPI", "descriptio": null, "kecamatan": "Gondokusuman", "kelurahan": "Kotabaru", "longitude": 110.377195, "latitude": -7.784704, "iconsrc": "https://peta.jogjakota.go.id/assets/icon_marker/placeholder.png", "kategori": "Tikor WiFi Free Hotspot" }, "geometry": { "type": "Point", "coordinates": [ 110.377195, -7.784704 ] } },
{ "type": "Feature", "properties": { "id": 124, "title": "Balai rk rw 16 Dukuh mantrijeron", "descriptio": null, "kecamatan": "Mantrijeron", "kelurahan": "Mantrijeron", "longitude": 110.354136, "latitude": -7.820967, "iconsrc": "https://peta.jogjakota.go.id/assets/icon_marker/placeholder.png", "kategori": "Tikor WiFi Free Hotspot" }, "geometry": { "type": "Point", "coordinates": [ 110.354136, -7.820967 ] } },
{ "type": "Feature", "properties": { "id": 125, "title": "Balai rw 10 Mantrijeron", "descriptio": null, "kecamatan": "Mantrijeron", "kelurahan": "Mantrijeron", "longitude": 110.36296, "latitude": -7.824666, "iconsrc": "https://peta.jogjakota.go.id/assets/icon_marker/placeholder.png", "kategori": "Tikor WiFi Free Hotspot" }, "geometry": { "type": "Point", "coordinates": [ 110.36296, -7.824666 ] } },
{ "type": "Feature", "properties": { "id": 126, "title": "Balai RW 10 mujamuju", "descriptio": null, "kecamatan": "Umbulharjo", "kelurahan": "Mujamuju", "longitude": 110.393563, "latitude": -7.803161, "iconsrc": "https://peta.jogjakota.go.id/assets/icon_marker/placeholder.png", "kategori": "Tikor WiFi Free Hotspot" }, "geometry": { "type": "Point", "coordinates": [ 110.393563, -7.803161 ] } },
{ "type": "Feature", "properties": { "id": 127, "title": "Masjid Ar-rohmah Ngampilan", "descriptio": null, "kecamatan": "Ngampilan", "kelurahan": "Ngampilan", "longitude": 110.35566, "latitude": -7.797634, "iconsrc": "https://peta.jogjakota.go.id/assets/icon_marker/placeholder.png", "kategori": "Tikor WiFi Free Hotspot" }, "geometry": { "type": "Point", "coordinates": [ 110.35566, -7.797634 ] } },
{ "type": "Feature", "properties": { "id": 128, "title": "Fasum samping Mualimat balai rw 6 ngampilan", "descriptio": null, "kecamatan": "Ngampilan", "kelurahan": "Notoprajan", "longitude": 110.358733, "latitude": -7.802852, "iconsrc": "https://peta.jogjakota.go.id/assets/icon_marker/placeholder.png", "kategori": "Tikor WiFi Free Hotspot" }, "geometry": { "type": "Point", "coordinates": [ 110.358733, -7.802852 ] } },
{ "type": "Feature", "properties": { "id": 129, "title": "RW 11 ngupasan", "descriptio": null, "kecamatan": "Gondomanan", "kelurahan": "Ngupasan", "longitude": 110.363502, "latitude": -7.802177, "iconsrc": "https://peta.jogjakota.go.id/assets/icon_marker/placeholder.png", "kategori": "Tikor WiFi Free Hotspot" }, "geometry": { "type": "Point", "coordinates": [ 110.363502, -7.802177 ] } },
{ "type": "Feature", "properties": { "id": 130, "title": "Balai rw 03 Ngadimulyo Pakuncen", "descriptio": null, "kecamatan": "Wirobrajan", "kelurahan": "Pakuncen", "longitude": 110.353824, "latitude": -7.79543, "iconsrc": "https://peta.jogjakota.go.id/assets/icon_marker/placeholder.png", "kategori": "Tikor WiFi Free Hotspot" }, "geometry": { "type": "Point", "coordinates": [ 110.353824, -7.79543 ] } },
{ "type": "Feature", "properties": { "id": 131, "title": "Balai RW 10 pandeyan", "descriptio": null, "kecamatan": "Umbulharjo", "kelurahan": "Pandeyan", "longitude": 110.391608, "latitude": -7.823011, "iconsrc": "https://peta.jogjakota.go.id/assets/icon_marker/placeholder.png", "kategori": "Tikor WiFi Free Hotspot" }, "geometry": { "type": "Point", "coordinates": [ 110.391608, -7.823011 ] } },
{ "type": "Feature", "properties": { "id": 132, "title": "Ruang Serbaguna rw 18 mangunegaran", "descriptio": null, "kecamatan": "Kraton", "kelurahan": "Panembahan", "longitude": 110.368124, "latitude": -7.803969, "iconsrc": "https://peta.jogjakota.go.id/assets/icon_marker/placeholder.png", "kategori": "Tikor WiFi Free Hotspot" }, "geometry": { "type": "Point", "coordinates": [ 110.368124, -7.803969 ] } },
{ "type": "Feature", "properties": { "id": 133, "title": "Mushola Al-Iman rw 8 Patangpuluhan", "descriptio": null, "kecamatan": "Wirobrajan", "kelurahan": "Patangpuluhan", "longitude": 110.350857, "latitude": -7.809221, "iconsrc": "https://peta.jogjakota.go.id/assets/icon_marker/placeholder.png", "kategori": "Tikor WiFi Free Hotspot" }, "geometry": { "type": "Point", "coordinates": [ 110.350857, -7.809221 ] } },
{ "type": "Feature", "properties": { "id": 134, "title": "Pos Kampung Ramah Anak patehan", "descriptio": null, "kecamatan": "Kraton", "kelurahan": "Patehan", "longitude": 110.36341, "latitude": -7.809098, "iconsrc": "https://peta.jogjakota.go.id/assets/icon_marker/placeholder.png", "kategori": "Tikor WiFi Free Hotspot" }, "geometry": { "type": "Point", "coordinates": [ 110.36341, -7.809098 ] } },
{ "type": "Feature", "properties": { "id": 135, "title": "Pos Ronda balai pasar sawo prawirodirjan", "descriptio": null, "kecamatan": "Gondomanan", "kelurahan": "Prawirodirjan", "longitude": 110.370222, "latitude": -7.805961, "iconsrc": "https://peta.jogjakota.go.id/assets/icon_marker/placeholder.png", "kategori": "Tikor WiFi Free Hotspot" }, "geometry": { "type": "Point", "coordinates": [ 110.370222, -7.805961 ] } },
{ "type": "Feature", "properties": { "id": 136, "title": "pendopo kajengan rw 10 prenggan", "descriptio": null, "kecamatan": "Kotagede", "kelurahan": "Prenggan", "longitude": 110.398123, "latitude": -7.826491, "iconsrc": "https://peta.jogjakota.go.id/assets/icon_marker/placeholder.png", "kategori": "Tikor WiFi Free Hotspot" }, "geometry": { "type": "Point", "coordinates": [ 110.398123, -7.826491 ] } },
{ "type": "Feature", "properties": { "id": 137, "title": "Balai rw 05 Prenggan", "descriptio": null, "kecamatan": "Kotagede", "kelurahan": "Prenggan", "longitude": 110.396848, "latitude": -7.823564, "iconsrc": "https://peta.jogjakota.go.id/assets/icon_marker/placeholder.png", "kategori": "Tikor WiFi Free Hotspot" }, "geometry": { "type": "Point", "coordinates": [ 110.396848, -7.823564 ] } },
{ "type": "Feature", "properties": { "id": 138, "title": "Balai Tri Manunggaling Warga RW 2 Pringgokusuman", "descriptio": null, "kecamatan": "Gedongtengen", "kelurahan": "Pringgokusuman", "longitude": 110.358428, "latitude": -7.788982, "iconsrc": "https://peta.jogjakota.go.id/assets/icon_marker/placeholder.png", "kategori": "Tikor WiFi Free Hotspot" }, "geometry": { "type": "Point", "coordinates": [ 110.358428, -7.788982 ] } },
{ "type": "Feature", "properties": { "id": 139, "title": "Masjid Aisyiyah Notoyudan RW 22 Pringgokusuman Gedongtengen", "descriptio": null, "kecamatan": "Gedongtengen", "kelurahan": "Pringgokusuman", "longitude": 110.356321, "latitude": -7.794503, "iconsrc": "https://peta.jogjakota.go.id/assets/icon_marker/placeholder.png", "kategori": "Tikor WiFi Free Hotspot" }, "geometry": { "type": "Point", "coordinates": [ 110.356321, -7.794503 ] } },
{ "type": "Feature", "properties": { "id": 140, "title": "Balai RW 4 Purbayan", "descriptio": null, "kecamatan": "Kotagede", "kelurahan": "Purbayan", "longitude": 110.402603, "latitude": -7.824385, "iconsrc": "https://peta.jogjakota.go.id/assets/icon_marker/placeholder.png", "kategori": "Tikor WiFi Free Hotspot" }, "geometry": { "type": "Point", "coordinates": [ 110.402603, -7.824385 ] } },
{ "type": "Feature", "properties": { "id": 141, "title": "Balai RW 8 purwokinanti", "descriptio": null, "kecamatan": "Pakualaman", "kelurahan": "Purwokinanti", "longitude": 110.373516, "latitude": -7.798788, "iconsrc": "https://peta.jogjakota.go.id/assets/icon_marker/placeholder.png", "kategori": "Tikor WiFi Free Hotspot" }, "geometry": { "type": "Point", "coordinates": [ 110.373516, -7.798788 ] } },
{ "type": "Feature", "properties": { "id": 142, "title": "Balai RT 25 Kotagede Rejowinangun RW 8", "descriptio": null, "kecamatan": "Kotagede", "kelurahan": "Rejowinangun", "longitude": 110.395533, "latitude": -7.810469, "iconsrc": "https://peta.jogjakota.go.id/assets/icon_marker/placeholder.png", "kategori": "Tikor WiFi Free Hotspot" }, "geometry": { "type": "Point", "coordinates": [ 110.395533, -7.810469 ] } },
{ "type": "Feature", "properties": { "id": 143, "title": "Pendopo Pilahan RW 12 Kotagede Rejowinangun", "descriptio": null, "kecamatan": "Kotagede", "kelurahan": "Rejowinangun", "longitude": 110.399381, "latitude": -7.81573, "iconsrc": "https://peta.jogjakota.go.id/assets/icon_marker/placeholder.png", "kategori": "Tikor WiFi Free Hotspot" }, "geometry": { "type": "Point", "coordinates": [ 110.399381, -7.81573 ] } },
{ "type": "Feature", "properties": { "id": 144, "title": "Balai Gong semaki", "descriptio": null, "kecamatan": "Umbulharjo", "kelurahan": "Semaki", "longitude": 110.385397, "latitude": -7.80052, "iconsrc": "https://peta.jogjakota.go.id/assets/icon_marker/placeholder.png", "kategori": "Tikor WiFi Free Hotspot" }, "geometry": { "type": "Point", "coordinates": [ 110.385397, -7.80052 ] } },
{ "type": "Feature", "properties": { "id": 145, "title": "Musholla Adz-Dzikro Nalen rw 15 sorosutan", "descriptio": null, "kecamatan": "Umbulharjo", "kelurahan": "Sorosutan", "longitude": 110.382767, "latitude": -7.82433, "iconsrc": "https://peta.jogjakota.go.id/assets/icon_marker/placeholder.png", "kategori": "Tikor WiFi Free Hotspot" }, "geometry": { "type": "Point", "coordinates": [ 110.382767, -7.82433 ] } },
{ "type": "Feature", "properties": { "id": 146, "title": "Kampung Sosrodipuran RW6 sosromenduran", "descriptio": null, "kecamatan": "Gedongtengen", "kelurahan": "Sosromenduran", "longitude": 110.362311, "latitude": -7.793331, "iconsrc": "https://peta.jogjakota.go.id/assets/icon_marker/placeholder.png", "kategori": "Tikor WiFi Free Hotspot" }, "geometry": { "type": "Point", "coordinates": [ 110.362311, -7.793331 ] } },
{ "type": "Feature", "properties": { "id": 147, "title": "Lorong Sayur", "descriptio": null, "kecamatan": "Danurejan", "kelurahan": "Suryatmajan", "longitude": 110.368668, "latitude": -7.796372, "iconsrc": "https://peta.jogjakota.go.id/assets/icon_marker/placeholder.png", "kategori": "Tikor WiFi Free Hotspot" }, "geometry": { "type": "Point", "coordinates": [ 110.368668, -7.796372 ] } },
{ "type": "Feature", "properties": { "id": 148, "title": "Balai rw 10 Suryodiningratan", "descriptio": null, "kecamatan": "Mantrijeron", "kelurahan": "Suryodiningratan", "longitude": 110.35745, "latitude": -7.818916, "iconsrc": "https://peta.jogjakota.go.id/assets/icon_marker/placeholder.png", "kategori": "Tikor WiFi Free Hotspot" }, "geometry": { "type": "Point", "coordinates": [ 110.35745, -7.818916 ] } },
{ "type": "Feature", "properties": { "id": 149, "title": "Balai RW 03 tahunan", "descriptio": null, "kecamatan": "Umbulharjo", "kelurahan": "Tahunan", "longitude": 110.384334, "latitude": -7.804653, "iconsrc": "https://peta.jogjakota.go.id/assets/icon_marker/placeholder.png", "kategori": "Tikor WiFi Free Hotspot" }, "geometry": { "type": "Point", "coordinates": [ 110.384334, -7.804653 ] } },
{ "type": "Feature", "properties": { "id": 150, "title": "Ruang Publik RW 15 Tegalpanggung", "descriptio": null, "kecamatan": "Danurejan", "kelurahan": "Tegalpanggung", "longitude": 110.371964, "latitude": -7.794833, "iconsrc": "https://peta.jogjakota.go.id/assets/icon_marker/placeholder.png", "kategori": "Tikor WiFi Free Hotspot" }, "geometry": { "type": "Point", "coordinates": [ 110.371964, -7.794833 ] } },
{ "type": "Feature", "properties": { "id": 151, "title": "Balai RW 14 Juminahan Tegalpanggung", "descriptio": null, "kecamatan": "Danurejan", "kelurahan": "Tegalpanggung", "longitude": 110.370485, "latitude": -7.795782, "iconsrc": "https://peta.jogjakota.go.id/assets/icon_marker/placeholder.png", "kategori": "Tikor WiFi Free Hotspot" }, "geometry": { "type": "Point", "coordinates": [ 110.370485, -7.795782 ] } },
{ "type": "Feature", "properties": { "id": 152, "title": "Balai Kesenian RW 08 Tegalrejo", "descriptio": null, "kecamatan": "Tegalrejo", "kelurahan": "Tegalrejo", "longitude": 110.358634, "latitude": -7.777096, "iconsrc": "https://peta.jogjakota.go.id/assets/icon_marker/placeholder.png", "kategori": "Tikor WiFi Free Hotspot" }, "geometry": { "type": "Point", "coordinates": [ 110.358634, -7.777096 ] } },
{ "type": "Feature", "properties": { "id": 153, "title": "balai lpmk rw 2 terban", "descriptio": null, "kecamatan": "Gondokusuman", "kelurahan": "Terban", "longitude": 110.374928, "latitude": -7.779486, "iconsrc": "https://peta.jogjakota.go.id/assets/icon_marker/placeholder.png", "kategori": "Tikor WiFi Free Hotspot" }, "geometry": { "type": "Point", "coordinates": [ 110.374928, -7.779486 ] } },
{ "type": "Feature", "properties": { "id": 154, "title": "Balai RW (GOR Glagahsari) warungboto", "descriptio": null, "kecamatan": "Umbulharjo", "kelurahan": "Warungboto", "longitude": 110.388025, "latitude": -7.804688, "iconsrc": "https://peta.jogjakota.go.id/assets/icon_marker/placeholder.png", "kategori": "Tikor WiFi Free Hotspot" }, "geometry": { "type": "Point", "coordinates": [ 110.388025, -7.804688 ] } },
{ "type": "Feature", "properties": { "id": 155, "title": "Balai RW 12 Wirobrajan", "descriptio": null, "kecamatan": "Wirobrajan", "kelurahan": "wirobrajan", "longitude": 110.345678, "latitude": -7.805071, "iconsrc": "https://peta.jogjakota.go.id/assets/icon_marker/placeholder.png", "kategori": "Tikor WiFi Free Hotspot" }, "geometry": { "type": "Point", "coordinates": [ 110.345678, -7.805071 ] } },
{ "type": "Feature", "properties": { "id": 156, "title": "Mushola Al-Amin", "descriptio": null, "kecamatan": "Wirobrajan", "kelurahan": "wirobrajan", "longitude": 110.352623, "latitude": -7.803438, "iconsrc": "https://peta.jogjakota.go.id/assets/icon_marker/placeholder.png", "kategori": "Tikor WiFi Free Hotspot" }, "geometry": { "type": "Point", "coordinates": [ 110.352623, -7.803438 ] } },
{ "type": "Feature", "properties": { "id": 157, "title": "Balai RW 24 wirogunan", "descriptio": null, "kecamatan": "Mergangsan", "kelurahan": "Wirogunan", "longitude": 110.376889, "latitude": -7.813556, "iconsrc": "https://peta.jogjakota.go.id/assets/icon_marker/placeholder.png", "kategori": "Tikor WiFi Free Hotspot" }, "geometry": { "type": "Point", "coordinates": [ 110.376889, -7.813556 ] } },
{ "type": "Feature", "properties": { "id": 158, "title": "Pos Ronda RW 1", "descriptio": null, "kecamatan": "Gondokusuman", "kelurahan": "Baciro", "longitude": 110.379941, "latitude": -7.797608, "iconsrc": "https://peta.jogjakota.go.id/assets/icon_marker/placeholder.png", "kategori": "Tikor WiFi Free Hotspot" }, "geometry": { "type": "Point", "coordinates": [ 110.379941, -7.797608 ] } },
{ "type": "Feature", "properties": { "id": 159, "title": "Pos Ronda RT 07", "descriptio": null, "kecamatan": "Gondokusuman", "kelurahan": "Baciro", "longitude": 110.379298, "latitude": -7.796536, "iconsrc": "https://peta.jogjakota.go.id/assets/icon_marker/placeholder.png", "kategori": "Tikor WiFi Free Hotspot" }, "geometry": { "type": "Point", "coordinates": [ 110.379298, -7.796536 ] } },
{ "type": "Feature", "properties": { "id": 160, "title": "Pos Ronda RT 09", "descriptio": null, "kecamatan": "Gondokusuman", "kelurahan": "Baciro", "longitude": 110.380258, "latitude": -7.795685, "iconsrc": "https://peta.jogjakota.go.id/assets/icon_marker/placeholder.png", "kategori": "Tikor WiFi Free Hotspot" }, "geometry": { "type": "Point", "coordinates": [ 110.380258, -7.795685 ] } },
{ "type": "Feature", "properties": { "id": 161, "title": "Masjid Mustaqiem Danukusuman", "descriptio": null, "kecamatan": "Gondokusuman", "kelurahan": "Baciro", "longitude": 110.379674, "latitude": -7.794034, "iconsrc": "https://peta.jogjakota.go.id/assets/icon_marker/placeholder.png", "kategori": "Tikor WiFi Free Hotspot" }, "geometry": { "type": "Point", "coordinates": [ 110.379674, -7.794034 ] } },
{ "type": "Feature", "properties": { "id": 162, "title": "Fasum RW 05 Danukusuman", "descriptio": null, "kecamatan": "Gondokusuman", "kelurahan": "Baciro", "longitude": 110.379584, "latitude": -7.792297, "iconsrc": "https://peta.jogjakota.go.id/assets/icon_marker/placeholder.png", "kategori": "Tikor WiFi Free Hotspot" }, "geometry": { "type": "Point", "coordinates": [ 110.379584, -7.792297 ] } },
{ "type": "Feature", "properties": { "id": 163, "title": "Tepat belajar dan kumpul warga", "descriptio": null, "kecamatan": "Gondokusuman", "kelurahan": "Baciro", "longitude": 110.379357, "latitude": -7.793303, "iconsrc": "https://peta.jogjakota.go.id/assets/icon_marker/placeholder.png", "kategori": "Tikor WiFi Free Hotspot" }, "geometry": { "type": "Point", "coordinates": [ 110.379357, -7.793303 ] } },
{ "type": "Feature", "properties": { "id": 164, "title": "Pos Ronda RT 30", "descriptio": null, "kecamatan": "Gondokusuman", "kelurahan": "Baciro", "longitude": 110.381059, "latitude": -7.792041, "iconsrc": "https://peta.jogjakota.go.id/assets/icon_marker/placeholder.png", "kategori": "Tikor WiFi Free Hotspot" }, "geometry": { "type": "Point", "coordinates": [ 110.381059, -7.792041 ] } },
{ "type": "Feature", "properties": { "id": 165, "title": "Gazebo Jalan Kenanga", "descriptio": null, "kecamatan": "Gondokusuman", "kelurahan": "Baciro", "longitude": 110.383217, "latitude": -7.792788, "iconsrc": "https://peta.jogjakota.go.id/assets/icon_marker/placeholder.png", "kategori": "Tikor WiFi Free Hotspot" }, "geometry": { "type": "Point", "coordinates": [ 110.383217, -7.792788 ] } },
{ "type": "Feature", "properties": { "id": 166, "title": "Gg. Delima GK 4/195", "descriptio": null, "kecamatan": "Gondokusuman", "kelurahan": "Baciro", "longitude": 110.380843, "latitude": -7.789685, "iconsrc": "https://peta.jogjakota.go.id/assets/icon_marker/placeholder.png", "kategori": "Tikor WiFi Free Hotspot" }, "geometry": { "type": "Point", "coordinates": [ 110.380843, -7.789685 ] } },
{ "type": "Feature", "properties": { "id": 167, "title": "Mushola Aisyiyah", "descriptio": null, "kecamatan": "Gondokusuman", "kelurahan": "Baciro", "longitude": 110.384437, "latitude": -7.792222, "iconsrc": "https://peta.jogjakota.go.id/assets/icon_marker/placeholder.png", "kategori": "Tikor WiFi Free Hotspot" }, "geometry": { "type": "Point", "coordinates": [ 110.384437, -7.792222 ] } },
{ "type": "Feature", "properties": { "id": 168, "title": "Pos Ronda RT 43", "descriptio": null, "kecamatan": "Gondokusuman", "kelurahan": "Baciro", "longitude": 110.384444, "latitude": -7.792915, "iconsrc": "https://peta.jogjakota.go.id/assets/icon_marker/placeholder.png", "kategori": "Tikor WiFi Free Hotspot" }, "geometry": { "type": "Point", "coordinates": [ 110.384444, -7.792915 ] } },
{ "type": "Feature", "properties": { "id": 169, "title": "Pos Ronda RT 50", "descriptio": null, "kecamatan": "Gondokusuman", "kelurahan": "Baciro", "longitude": 110.386564, "latitude": -7.792521, "iconsrc": "https://peta.jogjakota.go.id/assets/icon_marker/placeholder.png", "kategori": "Tikor WiFi Free Hotspot" }, "geometry": { "type": "Point", "coordinates": [ 110.386564, -7.792521 ] } },
{ "type": "Feature", "properties": { "id": 170, "title": "Pos Ronda RW 14", "descriptio": null, "kecamatan": "Gondokusuman", "kelurahan": "Baciro", "longitude": 110.389208, "latitude": -7.792688, "iconsrc": "https://peta.jogjakota.go.id/assets/icon_marker/placeholder.png", "kategori": "Tikor WiFi Free Hotspot" }, "geometry": { "type": "Point", "coordinates": [ 110.389208, -7.792688 ] } },
{ "type": "Feature", "properties": { "id": 171, "title": "Balai RT 60", "descriptio": null, "kecamatan": "Gondokusuman", "kelurahan": "Baciro", "longitude": 110.38795, "latitude": -7.791376, "iconsrc": "https://peta.jogjakota.go.id/assets/icon_marker/placeholder.png", "kategori": "Tikor WiFi Free Hotspot" }, "geometry": { "type": "Point", "coordinates": [ 110.38795, -7.791376 ] } },
{ "type": "Feature", "properties": { "id": 172, "title": "Balai PWKG", "descriptio": null, "kecamatan": "Gondokusuman", "kelurahan": "Baciro", "longitude": 110.3881, "latitude": -7.790616, "iconsrc": "https://peta.jogjakota.go.id/assets/icon_marker/placeholder.png", "kategori": "Tikor WiFi Free Hotspot" }, "geometry": { "type": "Point", "coordinates": [ 110.3881, -7.790616 ] } },
{ "type": "Feature", "properties": { "id": 173, "title": "Pos kegiatan sosial masyarakat", "descriptio": null, "kecamatan": "Gondokusuman", "kelurahan": "Baciro", "longitude": 110.389122, "latitude": -7.789546, "iconsrc": "https://peta.jogjakota.go.id/assets/icon_marker/placeholder.png", "kategori": "Tikor WiFi Free Hotspot" }, "geometry": { "type": "Point", "coordinates": [ 110.389122, -7.789546 ] } },
{ "type": "Feature", "properties": { "id": 174, "title": "Pos Ronda RT 72", "descriptio": null, "kecamatan": "Gondokusuman", "kelurahan": "Baciro", "longitude": 110.390378, "latitude": -7.790387, "iconsrc": "https://peta.jogjakota.go.id/assets/icon_marker/placeholder.png", "kategori": "Tikor WiFi Free Hotspot" }, "geometry": { "type": "Point", "coordinates": [ 110.390378, -7.790387 ] } },
{ "type": "Feature", "properties": { "id": 175, "title": "Masjid Al Munawaroh", "descriptio": null, "kecamatan": "Gondokusuman", "kelurahan": "Baciro", "longitude": 110.393267, "latitude": -7.79094, "iconsrc": "https://peta.jogjakota.go.id/assets/icon_marker/placeholder.png", "kategori": "Tikor WiFi Free Hotspot" }, "geometry": { "type": "Point", "coordinates": [ 110.393267, -7.79094 ] } },
{ "type": "Feature", "properties": { "id": 176, "title": "Vihara Vimalakirti", "descriptio": null, "kecamatan": "Gondokusuman", "kelurahan": "Baciro", "longitude": 110.381072, "latitude": -7.794623, "iconsrc": "https://peta.jogjakota.go.id/assets/icon_marker/placeholder.png", "kategori": "Tikor WiFi Free Hotspot" }, "geometry": { "type": "Point", "coordinates": [ 110.381072, -7.794623 ] } },
{ "type": "Feature", "properties": { "id": 177, "title": "Balai Sumeh RT 2/RW 1", "descriptio": null, "kecamatan": "Danurejan", "kelurahan": "Bausasran", "longitude": 110.376139, "latitude": -7.79075, "iconsrc": "https://peta.jogjakota.go.id/assets/icon_marker/placeholder.png", "kategori": "Tikor WiFi Free Hotspot" }, "geometry": { "type": "Point", "coordinates": [ 110.376139, -7.79075 ] } },
{ "type": "Feature", "properties": { "id": 178, "title": "Balai Warga", "descriptio": null, "kecamatan": "Danurejan", "kelurahan": "Bausasran", "longitude": 110.374572, "latitude": -7.791536, "iconsrc": "https://peta.jogjakota.go.id/assets/icon_marker/placeholder.png", "kategori": "Tikor WiFi Free Hotspot" }, "geometry": { "type": "Point", "coordinates": [ 110.374572, -7.791536 ] } },
{ "type": "Feature", "properties": { "id": 179, "title": "Pos Ronda RT 11", "descriptio": null, "kecamatan": "Danurejan", "kelurahan": "Bausasran", "longitude": 110.375314, "latitude": -7.792049, "iconsrc": "https://peta.jogjakota.go.id/assets/icon_marker/placeholder.png", "kategori": "Tikor WiFi Free Hotspot" }, "geometry": { "type": "Point", "coordinates": [ 110.375314, -7.792049 ] } },
{ "type": "Feature", "properties": { "id": 180, "title": "Pos Ronda RT 14", "descriptio": null, "kecamatan": "Danurejan", "kelurahan": "Bausasran", "longitude": 110.37616, "latitude": -7.793268, "iconsrc": "https://peta.jogjakota.go.id/assets/icon_marker/placeholder.png", "kategori": "Tikor WiFi Free Hotspot" }, "geometry": { "type": "Point", "coordinates": [ 110.37616, -7.793268 ] } },
{ "type": "Feature", "properties": { "id": 181, "title": "Komplek Masjid Lempuyangan", "descriptio": null, "kecamatan": "Danurejan", "kelurahan": "Bausasran", "longitude": 110.374935, "latitude": -7.793149, "iconsrc": "https://peta.jogjakota.go.id/assets/icon_marker/placeholder.png", "kategori": "Tikor WiFi Free Hotspot" }, "geometry": { "type": "Point", "coordinates": [ 110.374935, -7.793149 ] } },
{ "type": "Feature", "properties": { "id": 182, "title": "Mushola Macanan", "descriptio": null, "kecamatan": "Danurejan", "kelurahan": "Bausasran", "longitude": 110.375278, "latitude": -7.793917, "iconsrc": "https://peta.jogjakota.go.id/assets/icon_marker/placeholder.png", "kategori": "Tikor WiFi Free Hotspot" }, "geometry": { "type": "Point", "coordinates": [ 110.375278, -7.793917 ] } },
{ "type": "Feature", "properties": { "id": 183, "title": "Masjid Al Ma'ruf", "descriptio": null, "kecamatan": "Danurejan", "kelurahan": "Bausasran", "longitude": 110.377233, "latitude": -7.794433, "iconsrc": "https://peta.jogjakota.go.id/assets/icon_marker/placeholder.png", "kategori": "Tikor WiFi Free Hotspot" }, "geometry": { "type": "Point", "coordinates": [ 110.377233, -7.794433 ] } },
{ "type": "Feature", "properties": { "id": 184, "title": "Balai Warga", "descriptio": null, "kecamatan": "Danurejan", "kelurahan": "Bausasran", "longitude": 110.377392, "latitude": -7.793163, "iconsrc": "https://peta.jogjakota.go.id/assets/icon_marker/placeholder.png", "kategori": "Tikor WiFi Free Hotspot" }, "geometry": { "type": "Point", "coordinates": [ 110.377392, -7.793163 ] } },
{ "type": "Feature", "properties": { "id": 185, "title": "Pos Pertemuan Warga Masyarakat", "descriptio": null, "kecamatan": "Danurejan", "kelurahan": "Bausasran", "longitude": 110.373955, "latitude": -7.794883, "iconsrc": "https://peta.jogjakota.go.id/assets/icon_marker/placeholder.png", "kategori": "Tikor WiFi Free Hotspot" }, "geometry": { "type": "Point", "coordinates": [ 110.373955, -7.794883 ] } },
{ "type": "Feature", "properties": { "id": 186, "title": "Rumah belajar warga", "descriptio": null, "kecamatan": "Danurejan", "kelurahan": "Bausasran", "longitude": 110.375398, "latitude": -7.795992, "iconsrc": "https://peta.jogjakota.go.id/assets/icon_marker/placeholder.png", "kategori": "Tikor WiFi Free Hotspot" }, "geometry": { "type": "Point", "coordinates": [ 110.375398, -7.795992 ] } },
{ "type": "Feature", "properties": { "id": 187, "title": "Balai Warga", "descriptio": null, "kecamatan": "Danurejan", "kelurahan": "Bausasran", "longitude": 110.374135, "latitude": -7.796028, "iconsrc": "https://peta.jogjakota.go.id/assets/icon_marker/placeholder.png", "kategori": "Tikor WiFi Free Hotspot" }, "geometry": { "type": "Point", "coordinates": [ 110.374135, -7.796028 ] } },
{ "type": "Feature", "properties": { "id": 188, "title": "Tempat pertemuan warga", "descriptio": null, "kecamatan": "Danurejan", "kelurahan": "Bausasran", "longitude": 110.377041, "latitude": -7.796718, "iconsrc": "https://peta.jogjakota.go.id/assets/icon_marker/placeholder.png", "kategori": "Tikor WiFi Free Hotspot" }, "geometry": { "type": "Point", "coordinates": [ 110.377041, -7.796718 ] } },
{ "type": "Feature", "properties": { "id": 189, "title": "Gedung serbaguna", "descriptio": null, "kecamatan": "Tegalrejo", "kelurahan": "Bener", "longitude": 110.35242, "latitude": -7.776112, "iconsrc": "https://peta.jogjakota.go.id/assets/icon_marker/placeholder.png", "kategori": "Tikor WiFi Free Hotspot" }, "geometry": { "type": "Point", "coordinates": [ 110.35242, -7.776112 ] } },
{ "type": "Feature", "properties": { "id": 190, "title": "BALAI SERBAGUNA RW07", "descriptio": null, "kecamatan": "Tegalrejo", "kelurahan": "Bener", "longitude": 110.35304, "latitude": -7.777623, "iconsrc": "https://peta.jogjakota.go.id/assets/icon_marker/placeholder.png", "kategori": "Tikor WiFi Free Hotspot" }, "geometry": { "type": "Point", "coordinates": [ 110.35304, -7.777623 ] } },
{ "type": "Feature", "properties": { "id": 191, "title": "Pos Ronda RT 16 RW 04", "descriptio": null, "kecamatan": "Tegalrejo", "kelurahan": "Bener", "longitude": 110.35242, "latitude": -7.776112, "iconsrc": "https://peta.jogjakota.go.id/assets/icon_marker/placeholder.png", "kategori": "Tikor WiFi Free Hotspot" }, "geometry": { "type": "Point", "coordinates": [ 110.35242, -7.776112 ] } },
{ "type": "Feature", "properties": { "id": 192, "title": "Balai RT 52 RW 12 Badran", "descriptio": null, "kecamatan": "Jetis", "kelurahan": "Bumijo", "longitude": 110.358458, "latitude": -7.785392, "iconsrc": "https://peta.jogjakota.go.id/assets/icon_marker/placeholder.png", "kategori": "Tikor WiFi Free Hotspot" }, "geometry": { "type": "Point", "coordinates": [ 110.358458, -7.785392 ] } },
{ "type": "Feature", "properties": { "id": 193, "title": "Pos Ronda RT13 RW3", "descriptio": null, "kecamatan": "Jetis", "kelurahan": "Cokrodiningratan", "longitude": 110.365078, "latitude": -7.780457, "iconsrc": "https://peta.jogjakota.go.id/assets/icon_marker/placeholder.png", "kategori": "Tikor WiFi Free Hotspot" }, "geometry": { "type": "Point", "coordinates": [ 110.365078, -7.780457 ] } },
{ "type": "Feature", "properties": { "id": 194, "title": "Kantor RW 07 lama", "descriptio": null, "kecamatan": "Jetis", "kelurahan": "Cokrodiningratan", "longitude": 110.370217, "latitude": -7.778105, "iconsrc": "https://peta.jogjakota.go.id/assets/icon_marker/placeholder.png", "kategori": "Tikor WiFi Free Hotspot" }, "geometry": { "type": "Point", "coordinates": [ 110.370217, -7.778105 ] } },
{ "type": "Feature", "properties": { "id": 195, "title": "Kantor RW8", "descriptio": null, "kecamatan": "Jetis", "kelurahan": "Cokrodiningratan", "longitude": 110.368733, "latitude": -7.779991, "iconsrc": "https://peta.jogjakota.go.id/assets/icon_marker/placeholder.png", "kategori": "Tikor WiFi Free Hotspot" }, "geometry": { "type": "Point", "coordinates": [ 110.368733, -7.779991 ] } },
{ "type": "Feature", "properties": { "id": 196, "title": "Balai RW. 08 Sapen", "descriptio": null, "kecamatan": "Gondokusuman", "kelurahan": "Demangan", "longitude": 110.3926266, "latitude": -7.7885331, "iconsrc": "https://peta.jogjakota.go.id/assets/icon_marker/placeholder.png", "kategori": "Tikor WiFi Free Hotspot" }, "geometry": { "type": "Point", "coordinates": [ 110.3926266, -7.7885331 ] } },
{ "type": "Feature", "properties": { "id": 197, "title": "balai rw 11", "descriptio": null, "kecamatan": "Mantrijeron", "kelurahan": "Gedongkiwo", "longitude": 110.355446, "latitude": -7.815965, "iconsrc": "https://peta.jogjakota.go.id/assets/icon_marker/placeholder.png", "kategori": "Tikor WiFi Free Hotspot" }, "geometry": { "type": "Point", "coordinates": [ 110.355446, -7.815965 ] } },
{ "type": "Feature", "properties": { "id": 198, "title": "Tempat belajar warga", "descriptio": null, "kecamatan": "Mantrijeron", "kelurahan": "Gedongkiwo", "longitude": 110.353056, "latitude": -7.819278, "iconsrc": "https://peta.jogjakota.go.id/assets/icon_marker/placeholder.png", "kategori": "Tikor WiFi Free Hotspot" }, "geometry": { "type": "Point", "coordinates": [ 110.353056, -7.819278 ] } },
{ "type": "Feature", "properties": { "id": 199, "title": "Tempat perkumpulan pemuda", "descriptio": null, "kecamatan": "Mantrijeron", "kelurahan": "Gedongkiwo", "longitude": 110.351924, "latitude": -7.82178, "iconsrc": "https://peta.jogjakota.go.id/assets/icon_marker/placeholder.png", "kategori": "Tikor WiFi Free Hotspot" }, "geometry": { "type": "Point", "coordinates": [ 110.351924, -7.82178 ] } },
{ "type": "Feature", "properties": { "id": 200, "title": "Masjid Hidayat", "descriptio": null, "kecamatan": "Mantrijeron", "kelurahan": "Gedongkiwo", "longitude": 110.353621, "latitude": -7.808726, "iconsrc": "https://peta.jogjakota.go.id/assets/icon_marker/placeholder.png", "kategori": "Tikor WiFi Free Hotspot" }, "geometry": { "type": "Point", "coordinates": [ 110.353621, -7.808726 ] } },
{ "type": "Feature", "properties": { "id": 201, "title": "Pos Ronda RW 1", "descriptio": null, "kecamatan": "Umbulharjo", "kelurahan": "Giwangan", "longitude": 110.388361, "latitude": -7.823556, "iconsrc": "https://peta.jogjakota.go.id/assets/icon_marker/placeholder.png", "kategori": "Tikor WiFi Free Hotspot" }, "geometry": { "type": "Point", "coordinates": [ 110.388361, -7.823556 ] } },
{ "type": "Feature", "properties": { "id": 202, "title": "Balai RW", "descriptio": null, "kecamatan": "Umbulharjo", "kelurahan": "Giwangan", "longitude": 110.391389, "latitude": -7.830389, "iconsrc": "https://peta.jogjakota.go.id/assets/icon_marker/placeholder.png", "kategori": "Tikor WiFi Free Hotspot" }, "geometry": { "type": "Point", "coordinates": [ 110.391389, -7.830389 ] } },
{ "type": "Feature", "properties": { "id": 203, "title": "Balai RW", "descriptio": null, "kecamatan": "Umbulharjo", "kelurahan": "Giwangan", "longitude": 110.3865, "latitude": -7.832444, "iconsrc": "https://peta.jogjakota.go.id/assets/icon_marker/placeholder.png", "kategori": "Tikor WiFi Free Hotspot" }, "geometry": { "type": "Point", "coordinates": [ 110.3865, -7.832444 ] } },
{ "type": "Feature", "properties": { "id": 204, "title": "Area sekitar Masjid Al-Azhar", "descriptio": null, "kecamatan": "Umbulharjo", "kelurahan": "Giwangan", "longitude": 110.388658, "latitude": -7.825302, "iconsrc": "https://peta.jogjakota.go.id/assets/icon_marker/placeholder.png", "kategori": "Tikor WiFi Free Hotspot" }, "geometry": { "type": "Point", "coordinates": [ 110.388658, -7.825302 ] } },
{ "type": "Feature", "properties": { "id": 205, "title": "Panggung Dermaga Cinta Kali Gajah Wong", "descriptio": null, "kecamatan": "Umbulharjo", "kelurahan": "Giwangan", "longitude": 110.393618, "latitude": -7.830345, "iconsrc": "https://peta.jogjakota.go.id/assets/icon_marker/placeholder.png", "kategori": "Tikor WiFi Free Hotspot" }, "geometry": { "type": "Point", "coordinates": [ 110.393618, -7.830345 ] } },
{ "type": "Feature", "properties": { "id": 206, "title": "Omah Kreatif Loedji 16", "descriptio": null, "kecamatan": "Pakualaman", "kelurahan": "Gunungketur", "longitude": 110.377171, "latitude": -7.800562, "iconsrc": "https://peta.jogjakota.go.id/assets/icon_marker/placeholder.png", "kategori": "Tikor WiFi Free Hotspot" }, "geometry": { "type": "Point", "coordinates": [ 110.377171, -7.800562 ] } },
{ "type": "Feature", "properties": { "id": 207, "title": "Yayasan Putra Kauman", "descriptio": null, "kecamatan": "Pakualaman", "kelurahan": "Gunungketur", "longitude": 110.37525, "latitude": -7.800828, "iconsrc": "https://peta.jogjakota.go.id/assets/icon_marker/placeholder.png", "kategori": "Tikor WiFi Free Hotspot" }, "geometry": { "type": "Point", "coordinates": [ 110.37525, -7.800828 ] } },
{ "type": "Feature", "properties": { "id": 208, "title": "Serambi Masjid Ash-Shidiq", "descriptio": null, "kecamatan": "Kraton", "kelurahan": "Kadipaten", "longitude": 110.356194, "latitude": -7.809972, "iconsrc": "https://peta.jogjakota.go.id/assets/icon_marker/placeholder.png", "kategori": "Tikor WiFi Free Hotspot" }, "geometry": { "type": "Point", "coordinates": [ 110.356194, -7.809972 ] } },
{ "type": "Feature", "properties": { "id": 209, "title": "Balai Serbaguna RW 02", "descriptio": null, "kecamatan": "Kraton", "kelurahan": "Kadipaten", "longitude": 110.356382, "latitude": -7.80951, "iconsrc": "https://peta.jogjakota.go.id/assets/icon_marker/placeholder.png", "kategori": "Tikor WiFi Free Hotspot" }, "geometry": { "type": "Point", "coordinates": [ 110.356382, -7.80951 ] } },
{ "type": "Feature", "properties": { "id": 210, "title": "Balai RW 04", "descriptio": null, "kecamatan": "Kraton", "kelurahan": "Kadipaten", "longitude": 110.356498, "latitude": -7.805993, "iconsrc": "https://peta.jogjakota.go.id/assets/icon_marker/placeholder.png", "kategori": "Tikor WiFi Free Hotspot" }, "geometry": { "type": "Point", "coordinates": [ 110.356498, -7.805993 ] } },
{ "type": "Feature", "properties": { "id": 211, "title": "Pos Ronda Kadipaten", "descriptio": null, "kecamatan": "Kraton", "kelurahan": "Kadipaten", "longitude": 110.357688, "latitude": -7.804763, "iconsrc": "https://peta.jogjakota.go.id/assets/icon_marker/placeholder.png", "kategori": "Tikor WiFi Free Hotspot" }, "geometry": { "type": "Point", "coordinates": [ 110.357688, -7.804763 ] } },
{ "type": "Feature", "properties": { "id": 212, "title": "Balai Serbaguna Kadipaten", "descriptio": null, "kecamatan": "Kraton", "kelurahan": "Kadipaten", "longitude": 110.35934, "latitude": -7.805497, "iconsrc": "https://peta.jogjakota.go.id/assets/icon_marker/placeholder.png", "kategori": "Tikor WiFi Free Hotspot" }, "geometry": { "type": "Point", "coordinates": [ 110.35934, -7.805497 ] } },
{ "type": "Feature", "properties": { "id": 213, "title": "Gardu Ronda RT 25", "descriptio": null, "kecamatan": "Kraton", "kelurahan": "Kadipaten", "longitude": 110.359028, "latitude": -7.807361, "iconsrc": "https://peta.jogjakota.go.id/assets/icon_marker/placeholder.png", "kategori": "Tikor WiFi Free Hotspot" }, "geometry": { "type": "Point", "coordinates": [ 110.359028, -7.807361 ] } },
{ "type": "Feature", "properties": { "id": 214, "title": "Masjid Mulyo Utomo", "descriptio": null, "kecamatan": "Kraton", "kelurahan": "Kadipaten", "longitude": 110.359562, "latitude": -7.806328, "iconsrc": "https://peta.jogjakota.go.id/assets/icon_marker/placeholder.png", "kategori": "Tikor WiFi Free Hotspot" }, "geometry": { "type": "Point", "coordinates": [ 110.359562, -7.806328 ] } },
{ "type": "Feature", "properties": { "id": 215, "title": "Balai Pracimosono", "descriptio": null, "kecamatan": "Kraton", "kelurahan": "Kadipaten", "longitude": 110.363507, "latitude": -7.806139, "iconsrc": "https://peta.jogjakota.go.id/assets/icon_marker/placeholder.png", "kategori": "Tikor WiFi Free Hotspot" }, "geometry": { "type": "Point", "coordinates": [ 110.363507, -7.806139 ] } },
{ "type": "Feature", "properties": { "id": 216, "title": "Gedung rw 13", "descriptio": null, "kecamatan": "Tegalrejo", "kelurahan": "Karangwaru", "longitude": 110.361984, "latitude": -7.772691, "iconsrc": "https://peta.jogjakota.go.id/assets/icon_marker/placeholder.png", "kategori": "Tikor WiFi Free Hotspot" }, "geometry": { "type": "Point", "coordinates": [ 110.361984, -7.772691 ] } },
{ "type": "Feature", "properties": { "id": 217, "title": "Gedung serbaguna karangwaru lor", "descriptio": null, "kecamatan": "Tegalrejo", "kelurahan": "Karangwaru", "longitude": 110.361984, "latitude": -7.772691, "iconsrc": "https://peta.jogjakota.go.id/assets/icon_marker/placeholder.png", "kategori": "Tikor WiFi Free Hotspot" }, "geometry": { "type": "Point", "coordinates": [ 110.361984, -7.772691 ] } },
{ "type": "Feature", "properties": { "id": 218, "title": "Posyandu", "descriptio": null, "kecamatan": "Mergangsan", "kelurahan": "Keparakan", "longitude": 110.370306, "latitude": -7.810357, "iconsrc": "https://peta.jogjakota.go.id/assets/icon_marker/placeholder.png", "kategori": "Tikor WiFi Free Hotspot" }, "geometry": { "type": "Point", "coordinates": [ 110.370306, -7.810357 ] } },
{ "type": "Feature", "properties": { "id": 219, "title": "Wilayah Taman RT 7", "descriptio": null, "kecamatan": "Mergangsan", "kelurahan": "Keparakan", "longitude": 110.370306, "latitude": -7.810357, "iconsrc": "https://peta.jogjakota.go.id/assets/icon_marker/placeholder.png", "kategori": "Tikor WiFi Free Hotspot" }, "geometry": { "type": "Point", "coordinates": [ 110.370306, -7.810357 ] } },
{ "type": "Feature", "properties": { "id": 220, "title": "Balai RW 16", "descriptio": null, "kecamatan": "Gondokusuman", "kelurahan": "Klitren", "longitude": 110.3838, "latitude": -7.78376, "iconsrc": "https://peta.jogjakota.go.id/assets/icon_marker/placeholder.png", "kategori": "Tikor WiFi Free Hotspot" }, "geometry": { "type": "Point", "coordinates": [ 110.3838, -7.78376 ] } },
{ "type": "Feature", "properties": { "id": 221, "title": "Balai RW 13 Kepuh", "descriptio": null, "kecamatan": "Gondokusuman", "kelurahan": "Klitren", "longitude": 110.387231, "latitude": -7.781257, "iconsrc": "https://peta.jogjakota.go.id/assets/icon_marker/placeholder.png", "kategori": "Tikor WiFi Free Hotspot" }, "geometry": { "type": "Point", "coordinates": [ 110.387231, -7.781257 ] } },
{ "type": "Feature", "properties": { "id": 222, "title": "Masjid Kalimosodo", "descriptio": null, "kecamatan": "Gondokusuman", "kelurahan": "Kotabaru", "longitude": 110.371101, "latitude": -7.783854, "iconsrc": "https://peta.jogjakota.go.id/assets/icon_marker/placeholder.png", "kategori": "Tikor WiFi Free Hotspot" }, "geometry": { "type": "Point", "coordinates": [ 110.371101, -7.783854 ] } },
{ "type": "Feature", "properties": { "id": 223, "title": "Gedung Korsik", "descriptio": null, "kecamatan": "Gondokusuman", "kelurahan": "Kotabaru", "longitude": 110.37628, "latitude": -7.787878, "iconsrc": "https://peta.jogjakota.go.id/assets/icon_marker/placeholder.png", "kategori": "Tikor WiFi Free Hotspot" }, "geometry": { "type": "Point", "coordinates": [ 110.37628, -7.787878 ] } },
{ "type": "Feature", "properties": { "id": 224, "title": "Jatimulyo pos ronda RW 5", "descriptio": null, "kecamatan": "Tegalrejo", "kelurahan": "Kricak", "longitude": 110.358721, "latitude": -7.774519, "iconsrc": "https://peta.jogjakota.go.id/assets/icon_marker/placeholder.png", "kategori": "Tikor WiFi Free Hotspot" }, "geometry": { "type": "Point", "coordinates": [ 110.358721, -7.774519 ] } },
{ "type": "Feature", "properties": { "id": 225, "title": "Pos Ronda Kricak Kidul RW 8", "descriptio": null, "kecamatan": "Tegalrejo", "kelurahan": "Kricak", "longitude": 110.360111, "latitude": -7.778222, "iconsrc": "https://peta.jogjakota.go.id/assets/icon_marker/placeholder.png", "kategori": "Tikor WiFi Free Hotspot" }, "geometry": { "type": "Point", "coordinates": [ 110.360111, -7.778222 ] } },
{ "type": "Feature", "properties": { "id": 226, "title": "Pos relawan budaya", "descriptio": null, "kecamatan": "Tegalrejo", "kelurahan": "Kricak", "longitude": 110.35361, "latitude": -7.773611, "iconsrc": "https://peta.jogjakota.go.id/assets/icon_marker/placeholder.png", "kategori": "Tikor WiFi Free Hotspot" }, "geometry": { "type": "Point", "coordinates": [ 110.35361, -7.773611 ] } },
{ "type": "Feature", "properties": { "id": 227, "title": "RTHP Taman Flamboyan", "descriptio": null, "kecamatan": "Tegalrejo", "kelurahan": "Kricak", "longitude": 110.35506, "latitude": -7.77424, "iconsrc": "https://peta.jogjakota.go.id/assets/icon_marker/placeholder.png", "kategori": "Tikor WiFi Free Hotspot" }, "geometry": { "type": "Point", "coordinates": [ 110.35506, -7.77424 ] } },
{ "type": "Feature", "properties": { "id": 228, "title": "Tempat Kumpul Warga", "descriptio": null, "kecamatan": "Mantrijeron", "kelurahan": "Mantrijeron", "longitude": 110.366192, "latitude": -7.816047, "iconsrc": "https://peta.jogjakota.go.id/assets/icon_marker/placeholder.png", "kategori": "Tikor WiFi Free Hotspot" }, "geometry": { "type": "Point", "coordinates": [ 110.366192, -7.816047 ] } },
{ "type": "Feature", "properties": { "id": 229, "title": "Pos Ronda RW 14", "descriptio": null, "kecamatan": "Mantrijeron", "kelurahan": "Mantrijeron", "longitude": 110.366553, "latitude": -7.820778, "iconsrc": "https://peta.jogjakota.go.id/assets/icon_marker/placeholder.png", "kategori": "Tikor WiFi Free Hotspot" }, "geometry": { "type": "Point", "coordinates": [ 110.366553, -7.820778 ] } },
{ "type": "Feature", "properties": { "id": 230, "title": "BALAI RW 08 JAGERAN", "descriptio": null, "kecamatan": "Mantrijeron", "kelurahan": "Mantrijeron", "longitude": 110.362248, "latitude": -7.821727, "iconsrc": "https://peta.jogjakota.go.id/assets/icon_marker/placeholder.png", "kategori": "Tikor WiFi Free Hotspot" }, "geometry": { "type": "Point", "coordinates": [ 110.362248, -7.821727 ] } },
{ "type": "Feature", "properties": { "id": 231, "title": "Posyandu Sidobali", "descriptio": null, "kecamatan": "Umbulharjo", "kelurahan": "Mujamuju", "longitude": 110.397361, "latitude": -7.799861, "iconsrc": "https://peta.jogjakota.go.id/assets/icon_marker/placeholder.png", "kategori": "Tikor WiFi Free Hotspot" }, "geometry": { "type": "Point", "coordinates": [ 110.397361, -7.799861 ] } },
{ "type": "Feature", "properties": { "id": 232, "title": "Kelompok Belajar", "descriptio": null, "kecamatan": "Umbulharjo", "kelurahan": "Mujamuju", "longitude": 110.388719, "latitude": -7.798309, "iconsrc": "https://peta.jogjakota.go.id/assets/icon_marker/placeholder.png", "kategori": "Tikor WiFi Free Hotspot" }, "geometry": { "type": "Point", "coordinates": [ 110.388719, -7.798309 ] } },
{ "type": "Feature", "properties": { "id": 233, "title": "Balai Warga(Posyandu)", "descriptio": null, "kecamatan": "Umbulharjo", "kelurahan": "Mujamuju", "longitude": 110.389088, "latitude": -7.799329, "iconsrc": "https://peta.jogjakota.go.id/assets/icon_marker/placeholder.png", "kategori": "Tikor WiFi Free Hotspot" }, "geometry": { "type": "Point", "coordinates": [ 110.389088, -7.799329 ] } },
{ "type": "Feature", "properties": { "id": 234, "title": "Ruang Pelayanan Rumah Bapak RW", "descriptio": null, "kecamatan": "Umbulharjo", "kelurahan": "Mujamuju", "longitude": 110.3934306, "latitude": -7.7994885, "iconsrc": "https://peta.jogjakota.go.id/assets/icon_marker/placeholder.png", "kategori": "Tikor WiFi Free Hotspot" }, "geometry": { "type": "Point", "coordinates": [ 110.3934306, -7.7994885 ] } },
{ "type": "Feature", "properties": { "id": 235, "title": "Pendopo Balai Pertemuan Warga Ledok Timoho", "descriptio": null, "kecamatan": "Umbulharjo", "kelurahan": "Mujamuju", "longitude": 110.395351, "latitude": -7.792467, "iconsrc": "https://peta.jogjakota.go.id/assets/icon_marker/placeholder.png", "kategori": "Tikor WiFi Free Hotspot" }, "geometry": { "type": "Point", "coordinates": [ 110.395351, -7.792467 ] } },
{ "type": "Feature", "properties": { "id": 236, "title": "Masjid Bhayangkara", "descriptio": null, "kecamatan": "Ngampilan", "kelurahan": "Ngampilan", "longitude": 110.359805, "latitude": -7.797429, "iconsrc": "https://peta.jogjakota.go.id/assets/icon_marker/placeholder.png", "kategori": "Tikor WiFi Free Hotspot" }, "geometry": { "type": "Point", "coordinates": [ 110.359805, -7.797429 ] } },
{ "type": "Feature", "properties": { "id": 237, "title": "Pos Ronda RT 24 RW 04 Patuk", "descriptio": null, "kecamatan": "Ngampilan", "kelurahan": "Ngampilan", "longitude": 110.35692, "latitude": -7.797214, "iconsrc": "https://peta.jogjakota.go.id/assets/icon_marker/placeholder.png", "kategori": "Tikor WiFi Free Hotspot" }, "geometry": { "type": "Point", "coordinates": [ 110.35692, -7.797214 ] } },
{ "type": "Feature", "properties": { "id": 238, "title": "Rumah Warga Pak Joni", "descriptio": null, "kecamatan": "Ngampilan", "kelurahan": "Ngampilan", "longitude": 110.357917, "latitude": -7.798139, "iconsrc": "https://peta.jogjakota.go.id/assets/icon_marker/placeholder.png", "kategori": "Tikor WiFi Free Hotspot" }, "geometry": { "type": "Point", "coordinates": [ 110.357917, -7.798139 ] } },
{ "type": "Feature", "properties": { "id": 239, "title": "Masjid Al Ishlah", "descriptio": null, "kecamatan": "Ngampilan", "kelurahan": "Ngampilan", "longitude": 110.359939, "latitude": -7.799583, "iconsrc": "https://peta.jogjakota.go.id/assets/icon_marker/placeholder.png", "kategori": "Tikor WiFi Free Hotspot" }, "geometry": { "type": "Point", "coordinates": [ 110.359939, -7.799583 ] } },
{ "type": "Feature", "properties": { "id": 240, "title": "Balai rw 12", "descriptio": null, "kecamatan": "Ngampilan", "kelurahan": "Ngampilan", "longitude": 110.360815, "latitude": -7.799952, "iconsrc": "https://peta.jogjakota.go.id/assets/icon_marker/placeholder.png", "kategori": "Tikor WiFi Free Hotspot" }, "geometry": { "type": "Point", "coordinates": [ 110.360815, -7.799952 ] } },
{ "type": "Feature", "properties": { "id": 241, "title": "Balai Kampung Purwodiningratan/Masjid nurul huda", "descriptio": null, "kecamatan": "Ngampilan", "kelurahan": "Ngampilan", "longitude": 110.357538, "latitude": -7.799122, "iconsrc": "https://peta.jogjakota.go.id/assets/icon_marker/placeholder.png", "kategori": "Tikor WiFi Free Hotspot" }, "geometry": { "type": "Point", "coordinates": [ 110.357538, -7.799122 ] } },
{ "type": "Feature", "properties": { "id": 242, "title": "Mushola Al-Maun Ngadiwinatan", "descriptio": null, "kecamatan": "Ngampilan", "kelurahan": "Ngampilan", "longitude": 110.359829, "latitude": -7.797938, "iconsrc": "https://peta.jogjakota.go.id/assets/icon_marker/placeholder.png", "kategori": "Tikor WiFi Free Hotspot" }, "geometry": { "type": "Point", "coordinates": [ 110.359829, -7.797938 ] } },
{ "type": "Feature", "properties": { "id": 243, "title": "Balai Warga Kampung Kauman", "descriptio": null, "kecamatan": "Gondomanan", "kelurahan": "Ngupasan", "longitude": 110.361278, "latitude": -7.801778, "iconsrc": "https://peta.jogjakota.go.id/assets/icon_marker/placeholder.png", "kategori": "Tikor WiFi Free Hotspot" }, "geometry": { "type": "Point", "coordinates": [ 110.361278, -7.801778 ] } },
{ "type": "Feature", "properties": { "id": 244, "title": "Ruang Kumpul - BoSem", "descriptio": null, "kecamatan": "Gondomanan", "kelurahan": "Ngupasan", "longitude": 110.370778, "latitude": -7.800361, "iconsrc": "https://peta.jogjakota.go.id/assets/icon_marker/placeholder.png", "kategori": "Tikor WiFi Free Hotspot" }, "geometry": { "type": "Point", "coordinates": [ 110.370778, -7.800361 ] } },
{ "type": "Feature", "properties": { "id": 245, "title": "Gereja GPIB Marga Mulya", "descriptio": null, "kecamatan": "Gondomanan", "kelurahan": "Ngupasan", "longitude": 110.364522, "latitude": -7.799413, "iconsrc": "https://peta.jogjakota.go.id/assets/icon_marker/placeholder.png", "kategori": "Tikor WiFi Free Hotspot" }, "geometry": { "type": "Point", "coordinates": [ 110.364522, -7.799413 ] } },
{ "type": "Feature", "properties": { "id": 246, "title": "Tempat Pertemuan Warga (Pos Ronda)", "descriptio": null, "kecamatan": "Gondomanan", "kelurahan": "Ngupasan", "longitude": 110.370944, "latitude": -7.801167, "iconsrc": "https://peta.jogjakota.go.id/assets/icon_marker/placeholder.png", "kategori": "Tikor WiFi Free Hotspot" }, "geometry": { "type": "Point", "coordinates": [ 110.370944, -7.801167 ] } },
{ "type": "Feature", "properties": { "id": 247, "title": "Ruang Publik RW 04", "descriptio": null, "kecamatan": "Gondomanan", "kelurahan": "Ngupasan", "longitude": 110.366362, "latitude": -7.796829, "iconsrc": "https://peta.jogjakota.go.id/assets/icon_marker/placeholder.png", "kategori": "Tikor WiFi Free Hotspot" }, "geometry": { "type": "Point", "coordinates": [ 110.366362, -7.796829 ] } },
{ "type": "Feature", "properties": { "id": 248, "title": "RTHP RT 25 RW 7 Ratmakan", "descriptio": null, "kecamatan": "Gondomanan", "kelurahan": "Ngupasan", "longitude": 110.370287, "latitude": -7.799485, "iconsrc": "https://peta.jogjakota.go.id/assets/icon_marker/placeholder.png", "kategori": "Tikor WiFi Free Hotspot" }, "geometry": { "type": "Point", "coordinates": [ 110.370287, -7.799485 ] } },
{ "type": "Feature", "properties": { "id": 249, "title": "Balai RW 02", "descriptio": null, "kecamatan": "Ngampilan", "kelurahan": "Notoprajan", "longitude": 110.355731, "latitude": -7.803624, "iconsrc": "https://peta.jogjakota.go.id/assets/icon_marker/placeholder.png", "kategori": "Tikor WiFi Free Hotspot" }, "geometry": { "type": "Point", "coordinates": [ 110.355731, -7.803624 ] } },
{ "type": "Feature", "properties": { "id": 250, "title": "Pos Ronda (Fasum) RT 19", "descriptio": null, "kecamatan": "Wirobrajan", "kelurahan": "Pakuncen", "longitude": 110.351628, "latitude": -7.796042, "iconsrc": "https://peta.jogjakota.go.id/assets/icon_marker/placeholder.png", "kategori": "Tikor WiFi Free Hotspot" }, "geometry": { "type": "Point", "coordinates": [ 110.351628, -7.796042 ] } },
{ "type": "Feature", "properties": { "id": 251, "title": "Balai RK 09", "descriptio": null, "kecamatan": "Wirobrajan", "kelurahan": "Pakuncen", "longitude": 110.353472, "latitude": -7.798056, "iconsrc": "https://peta.jogjakota.go.id/assets/icon_marker/placeholder.png", "kategori": "Tikor WiFi Free Hotspot" }, "geometry": { "type": "Point", "coordinates": [ 110.353472, -7.798056 ] } },